station_id,station_name,station_lat,station_lng
7954.12,Frederick Douglass Blvd & W 145 St,40.823071718,-73.941738367
7756.10,St Nicholas Ave & W 126 St,40.8114323,-73.9518776
6771.13,W 54 St & 6 Ave,40.761822224,-73.977036119
6953.08,E 74 St & 1 Ave,40.7689738,-73.95482273
5659.11,E 11 St & Ave B,40.72759223,-73.979750872
5847.06,W 10 St & Washington St,40.73342399437081,-74.00851495563984
7443.01,Madison Ave & E 99 St,40.789807916,-73.952213883
4339.01,Butler St & Court St,40.685105681,-73.994274259
4903.09,Dock St & Front St,40.702709,-73.99253
4422.05,Columbia St & Kane St,40.687755704,-74.001601577
7981.16,Broadway & W 142 St,40.824686,-73.951947
7809.13,E 138 St & 5 Ave,40.81449,-73.936153
7670.09,Adam Clayton Powell Blvd & W 118 St,40.804372,-73.951475
8033.09,W 148 St & Amsterdam Ave,40.827075,-73.945909
7650.05,West End Ave & W 107 St,40.8021174,-73.9681805305
4895.03,Front St & Jay St,40.702461,-73.986842
6490.02,108 St & 39 Ave,40.751675963,-73.859253645
6599.01,Roosevelt Island Tramway,40.757284,-73.9536
5440.05,57 St & Grand Ave,40.719180703,-73.91248774499999
5540.06,56 Dr & 61 St,40.72368,-73.90458
7918.12,Melrose Ave & E 154 St,40.819566607,-73.91613853
8241.07,3 Ave & E 174 St,40.84224,-73.8985
4847.03,Wyckoff Ave & Gates Ave,40.699910998,-73.911737442
4971.01,Hart St & Wyckoff Ave,40.704876,-73.919911
5938.11,E 16 St & Irving Pl,40.735367055605394,-73.98797392845154
6765.01,12 Ave & W 40 St,40.760965466,-74.002834797
5829.12,E 11 St & Broadway,40.73261787,-73.99158043
6923.20,31 St & Newtown Ave,40.767381787,-73.92118454
6053.01,Corona Ave & 111 St,40.7408,-73.84978
5074.08,Woodward Ave & Harman St,40.70793,-73.91092
7898.03,St Nicholas Ave & W 137 St,40.818465233,-73.947640419
5134.09,Broadway & Kent Ave,40.710843325,-73.968317866
4748.07,Clinton St & Tillary St,40.696232971293156,-73.99142056703568
7851.04,5 Av & W 139 St,40.815484,-73.935856
7727.07,Amsterdam Ave & W 119 St,40.808541298,-73.959700584
5779.09,E 13 St & Ave A,40.72966729392978,-73.98067966103554
6297.07,8 Ave & W 27 St,40.74808073,-73.996500492
4479.10,Schermerhorn St & Hoyt St,40.6886263,-73.9851911
5854.09,1 Ave & E 18 St,40.733892441,-73.980594039
6824.07,W 47 St & 10 Ave,40.762617707,-73.99276197
7504.18,E 106 St & Lexington Ave,40.791943669,-73.945835948
6538.11,38 Ave & 29 St,40.754853129,-73.93366909
6889.12,E 72 St & York Ave,40.76663814,-73.95348296
7769.06,5 Ave & E 135 St,40.812159181,-73.937910438
4914.03,Bushwick Ave & Forrest St,40.70086658,-73.936498165
7121.02,E 80 St & 2 Ave,40.77391390238118,-73.9543953537941
6425.04,11 Ave & W 27 St,40.751206875,-74.005429626
3240.15,Fort Hamilton Pkwy & E 5 St,40.649074078,-73.976831079
5430.10,6 Ave & Walker St,40.719533443,-74.005375743
8057.02,Grand Concourse & E 164 St,40.829576254,-73.921542525
7901.04,Morris Ave & E 153 St,40.820036,-73.921411
3448.02,Parkside Ave & Ocean Ave,40.65485,-73.96217
8156.01,E 170 St & Clay Ave,40.837183952,-73.908627272
4628.05,Willoughby St & Fleet St,40.692049742,-73.981513023
7580.01,W 100 St & Broadway,40.7973721,-73.97041192
6542.05,99 St & 35 Ave,40.75404,-73.86887
6585.11,34 Ave & Junction Blvd,40.75502,-73.87285
8469.05,Audubon Ave & W 192 St,40.855874538,-73.927140713
7538.18,Central Park W & W 97 St,40.792755961,-73.964063764
8179.03,Walton Ave & E 168 St,40.836543083,-73.918273926
7563.06,E 116 St & 2 Ave,40.796830416,-73.937286854
4912.10,Catalpa Ave & Woodward Ave,40.70229,-73.90145
4441.06,Broadway & Hancock St,40.686712503,-73.916831374
4862.04,Myrtle Ave & 65 St,40.701257586,-73.890411377
6441.02,Broadway & W 37 St,40.75172632,-73.98753523
5752.07,Milton St & Franklin St,40.72906,-73.95779
5329.08,Murray St & West St,40.714502335,-74.012183785
6058.08,44 St & 48 Ave,40.739199519,-73.921339631
8194.07,E 170 St & Sheridan Ave,40.838320374,-73.912514567
8425.01,W Burnside Ave & University Ave,40.853651762,-73.912593722
3608.06,Maple St & Albany Ave,40.661609411,-73.93962729
6668.06,90 St & 32 Ave,40.75836,-73.87824
7835.10,St Ann's Ave & Westchester Ave,40.815907598,-73.911979079
6471.02,21 St & Queens Plaza North,40.753202915,-73.943461895
4199.13,Carlton Ave & St Marks Ave,40.679111481,-73.971801996
6733.01,99 St & Astoria Blvd,40.76196,-73.87042
7940.02,E 155 St & Courtlandt Ave,40.820632696,-73.917412996
7146.04,E 85 St & York Ave,40.77536905,-73.94803392
6915.02,Steinway St & 28 Ave,40.76576519,-73.913620591
6850.01,38 St & 30 Ave,40.764174520197685,-73.91583994030952
7643.18,Adam Clayton Powell Blvd & W 115 St,40.802535,-73.9532423
7256.01,20 Ave & 31 St,40.780167818,-73.906913161
7669.10,E 138 St & Cypress Ave,40.805559,-73.914718
5473.03,Engert Ave & McGuinness Blvd,40.72158,-73.94546
4199.12,Carlton Ave & Dean St,40.6809741,-73.9710097
4322.06,Bergen St & 4 Ave,40.68256425759694,-73.9798977971077
5610.09,6 Ave & Broome St,40.72431,-74.00473
6969.08,E 66 St & Madison Ave,40.76800889305947,-73.96845281124115
4237.02,Albany Ave & Fulton St,40.6800105,-73.938475
4596.09,Lawrence St & Willoughby St,40.69236178,-73.98631746
5636.11,Great Jones St,40.72743423,-73.99379025
5282.02,Devoe St & Morgan Ave,40.713811,-73.93515
5382.06,Grand St & Elizabeth St,40.718822,-73.99596
5247.10,Reade St & Broadway,40.71450451,-74.00562789
4077.04,Smith St & 9 St,40.6746957,-73.99785768
6239.08,E 31 St & 3 Ave,40.74394314,-73.97966069
7646.04,W 110 St & Amsterdam Ave,40.802692,-73.96295
6254.06,Center Blvd & 48 Ave,40.745038,-73.957539
6569.08,W 35 St & Dyer Ave,40.754691750226016,-73.99740189313889
4735.16,Hancock St & Wyckoff Ave,40.697188735,-73.906862497
7774.02,Adam Clayton Powell Blvd & W 130 St,40.812409878,-73.946125746
4816.05,Myrtle Ave & Grove St,40.69905,-73.91516
3507.04,Prospect Park W & 20 St,40.656633,-73.983864
6188.04,Corona Ave & 98 St,40.744483471,-73.86527729
5878.02,60 Ave & Junction Blvd,40.73466,-73.86501
8799.01,Goulden Ave & W 205 St,40.87822473,-73.891926408
8720.02,Jerome Ave & E 198 St,40.87144520687118,-73.89289632439613
4987.06,White St & Moore St,40.704297781,-73.934761405
7170.04,35 St & 21 Ave,40.776820183,-73.906606317
6994.06,Ditmars Blvd & 79 St,40.768717408,-73.890929341
6028.01,57 Ave & 98 Pl,40.737955689,-73.861109614
5845.02,Woodhaven Blvd & Hoffman Dr,40.73303,-73.871
5929.01,E 23 St & 1 Ave,40.736514926,-73.978145957
5955.12,Perry St & Greenwich Ave,40.735918,-74.000939
6398.06,W 37 St & 5 Ave,40.750479817,-73.983410954
6779.04,Broadway & W 51 St,40.76228826,-73.98336183
8374.02,Park Ave & E 179 St,40.85014,-73.89818
5250.05,Bushwick Ave & Powers St,40.71247661,-73.94100005
5129.01,Palmetto St & Traffic Ave,40.70929,-73.89441
6134.03,Greenpoint Ave & 47 St,40.7424,-73.91808
5342.10,Allen St & Hester St,40.715866327,-73.991988063
5872.10,E 9 St & 5 Ave,40.732587457,-73.995731711
5369.01,Grand Ave & 55 St,40.71888,-73.91427
6174.03,79 St & Woodside Ave,40.74364,-73.88622
6688.01,Crescent St & 35 Ave,40.7596276,-73.9321455
8520.01,Andrew Ave N & Hall of Fame Tce,40.858389974,-73.910016179
8613.09,10 Ave & W 207 St,40.864632,-73.918598
6258.03,72 St & 41 Ave,40.7448,-73.89377
6237.01,47 Ave & Skillman Ave,40.7437524099784,-73.94176483154297
5170.01,Stagg St & Morgan Ave,40.710681,-73.93372
7703.14,E 141 St & Jackson Ave,40.807162166,-73.911921263
7719.13,Southern Blvd & E 142 St,40.807347437082,-73.90809774398804
6532.06,E 51 St & 1 Ave,40.75455731,-73.96592976
7720.03,Lenox Ave & W 126 St,40.808442,-73.9452087
5905.14,University Pl & E 14 St,40.734814,-73.992085
8225.05,Clay Ave & Claremont Pkwy,40.83999,-73.90549
5669.12,E 6 St & 2 Ave,40.727378693232225,-73.98840844631195
3628.11,6 Ave & 21 St,40.66016,-73.990974
5980.07,E 17 St & Broadway,40.73704984,-73.99009296
4903.08,Old Fulton St,40.70277159,-73.99383605
6677.03,32 Ave & 81 St,40.75763,-73.88682
6709.05,31 Ave & 86 St,40.75958,-73.88219
8782.01,Paul Ave & W 205 St,40.877143741,-73.889353037
8876.04,Van Cortlandt Park S & Gouverneur Ave,40.88492,-73.89084
6708.04,Broadway & W 48 St,40.76017739537783,-73.98486793041229
3950.03,Park Pl & Thomas S. Boyland St,40.671494484,-73.914398551
4807.02,Madison St & Cypress Ave,40.70068,-73.90742
4476.03,Marcy Ave & Lafayette Ave,40.6900815,-73.947915
5489.04,N 11 St & Kent Ave,40.72248188638219,-73.95921930670738
8157.06,Broadway & W 160 St,40.835711598,-73.943508148
8344.04,Macombs Rd & W 175 St,40.848177,-73.916082
5036.06,Leonard St & Boerum St,40.705853224,-73.946442366
7159.08,Astoria Park S & Shore Blvd,40.7767,-73.927631
6373.07,W 30 St & 8 Ave,40.74965268472847,-73.9952078461647
6644.07,W 42 St & Dyer Ave,40.75898481399634,-73.99379968643188
7860.08,Convent Ave & W 135 St,40.818215,-73.950988
6670.03,43 St & Broadway,40.7577284,-73.9166368
3312.07,Prospect Ave & Greenwood Ave,40.651745,-73.975988
6505.09,24 St & 41 Ave,40.752474,-73.939991
6119.01,49 Ave & 27 St,40.74113,-73.942518
6245.08,46 Rd & 11 St,40.745805,-73.950752
5332.10,Jackson St & Leonard St,40.71638031973561,-73.94821286201477
5411.08,Driggs Ave & N 9 St,40.71816969454208,-73.95520135760307
6267.08,65 St & Roosevelt Ave,40.74589,-73.89915
8778.01,E Mosholu Pkwy & Van Cortlandt Ave E,40.87656,-73.88366
6877.06,25 Ave & 96 St,40.76447,-73.87369
5159.07,South St & Pike St,40.709952235,-73.991484404
3243.02,47 St & 3 Ave,40.649140716,-74.01229167
4596.05,Duffield St & Willoughby St,40.69221589,-73.9842844
6331.01,W 31 St & 7 Ave,40.749156,-73.9916
5826.02,India St & Manhattan Ave,40.73232194,-73.9550858
7432.04,W 90 St & Amsterdam Ave,40.79017948095081,-73.97288918495178
5198.04,Market St & Cherry St,40.71076228,-73.99400398
6115.09,W 15 St & 10 Ave,40.742753828659026,-74.00747358798981
8092.06,Grand Concourse & E 166 St,40.83196,-73.91956
4939.07,Suydam St & Knickerbocker Ave,40.702013,-73.923769
5160.01,Metropolitan Ave & 65 Ln,40.71225071,-73.890971303
5956.05,50 Ave & 65 St,40.73707,-73.90077
3943.03,St Johns Pl & Kingston Ave,40.67113,-73.94222
5433.04,Frost St & Debevoise Ave,40.71882,-73.93948
6098.12,Broadway & E 19 St,40.73866091428551,-73.98987293243407
6313.10,Lexington Ave & E 36 St,40.747573958954796,-73.9788007736206
4531.05,Henry St & Atlantic Ave,40.69089272,-73.99612349
7617.07,Central Park North & Adam Clayton Powell Blvd,40.799484,-73.955613
5436.11,E Houston St & Columbia St,40.71978635452822,-73.97871628403664
4611.03,Willoughby Ave & Hall St,40.69196035,-73.96536851
8111.07,River Ave & McClellan St,40.83406,-73.92243
4568.01,Van Buren St & Broadway,40.692,-73.92617
4285.09,Rockaway Ave & Bainbridge St,40.68319988172761,-73.91166642308235
3022.01,Cortelyou Rd & E 19 St,40.64267993,-73.961006045
3140.09,Bedford Ave & Beverley Rd,40.64491,-73.95487
7865.09,Broadway & W 131 St,40.817555,-73.957163
3359.03,Linden Blvd & Nostrand Ave,40.652710915,-73.949993014
4345.11,Fulton St & Waverly Ave,40.683240294,-73.966212988
8491.07,Audubon Ave & Fort George Ave,40.85715781391904,-73.92717361450195
6492.04,W 33 St & 10 Ave,40.753773368360385,-73.99937599897385
5175.08,Fulton St & Broadway,40.711034298,-74.009545088
5033.01,Broadway & Morris St,40.706191063,-74.012979507
3486.02,Clarkson Ave & Utica Ave,40.65666604,-73.931143522
7783.18,Broadway & W 122 St,40.812202334,-73.961183429
3982.01,Eastern Pkwy\t& St Marks Ave,40.67323029,-73.910822392
6638.01,34 Ave & 38 St,40.756927371,-73.921432495
5259.06,Devoe St & Lorimer St,40.713438392,-73.949118733
5572.07,Van Dam St & Meeker Ave,40.72532,-73.9368
6432.11,E 40 St & Park Ave,40.751324892,-73.97706759
6518.08,34 Ave & 83 St,40.753782153,-73.884409785
8649.03,Bainbridge Ave & E 198 St,40.8684871,-73.8884559781
8262.07,W 171 St & St Nicholas Ave,40.843027949,-73.938815236
4154.02,Pacific St & Utica Ave,40.6767,-73.93051
7948.10,Intervale Ave & Westchester Ave,40.821996927,-73.896728516
7658.13,Frederick Douglass Blvd & W 115 St,40.8038654,-73.9559308
4437.09,Nevins St & Schermerhorn St,40.687518477,-73.981845975
5190.07,Madison St & Clinton St,40.712614775,-73.987729907
8130.02,E 165 St & Jerome Ave,40.83254993,-73.924984455
4856.05,Irving Ave & Harman St,40.701241374,-73.917996168
4904.03,Cypress Hills St & Otto Rd,40.70204,-73.89288
5914.08,Greenwich Ave & Charles St,40.734960556,-74.000261664
8451.07,E 182 St & Park Ave,40.854648471,-73.895056248
6662.09,51 St & Hobart St,40.757856607,-73.907620192
7386.10,2 Ave & E 99 St,40.786554933,-73.945725322
3803.05,6 Ave & 12 St,40.666289568,-73.985342026
8325.08,Southern Blvd & E 180 St,40.846167922,-73.884300351
5343.11,Orchard St & Grand St,40.717541218,-73.990415692
7504.19,3 Ave & E 109 St,40.793262005,-73.943242431
6729.02,21 St & 36 Ave,40.7601853,-73.9362726
3253.01,52 St & 1 Ave,40.649292,-74.020105
8085.09,St Nicholas Ave & W 157 St,40.832335711,-73.940848112
8795.01,Jerome Ave & E Mosholu Pkwy S,40.879482865,-73.885160327
4994.10,Onderdonk Ave & Gates Ave,40.70413,-73.90737
7271.01,Shore Blvd & Astoria Park,40.77977,-73.923162
5097.02,60 Pl & Linden St,40.70886,-73.90182
3117.05,46 St & 7 Ave,40.64490068,-74.003687978
8635.08,Grand Concourse & E 196 St,40.867662668,-73.893057108
6509.07,92 St & 35 Ave,40.752901316,-73.875420094
3113.06,Rugby Rd & Beverley Rd,40.64435,-73.96591
3388.03,40 St & 3 Ave,40.6535,-74.00902
4765.07,Cypress Ave & George St,40.69812,-73.90271
3853.02,Eastern Pkwy & Rochester Ave,40.668488383,-73.928056359
3871.02,Eastern Pkwy & Brooklyn Ave,40.66939,-73.94514
8141.05,College Ave & E 169 St,40.835113168,-73.911885858
8175.06,College Ave & E 170 St,40.837607741,-73.910448432
5920.03,94 St & 57 Ave,40.736322522,-73.867770076
6748.04,82 St & 30 Ave,40.761313915,-73.886354685
5082.08,Jefferson St & Cypress Ave,40.70907,-73.92157
7793.02,E 149 St & Eagle Ave,40.814109564,-73.911988378
8029.28,Macombs Pl & W 152 St,40.826406,-73.937948
6025.08,39 St & 50 Ave,40.738008618,-73.927302837
3699.07,17 St & 5 Ave,40.663430333,-73.990897298
8137.06,3 Ave & E 170 St,40.834956765,-73.903681517
6921.04,23 Ave & 83 St,40.766447186,-73.886874318
7511.19,5 Ave & E 103 St,40.792246461,-73.952758312
8897.05,W 238 St & Tibbett Ave,40.885884523,-73.902538896
6529.02,37 Ave & 35 St,40.753209949,-73.927666783
3596.04,4 Ave & 26 St,40.660192251,-73.998458505
6642.08,34 Ave & 113 St,40.756955028,-73.856192827
8496.01,Fort Washington Ave & W 190 St,40.857025027,-73.935697317
3166.03,Albemarle Rd & McDonald Ave,40.64528966,-73.979562521
5270.09,Market St & Henry St,40.71310702305908,-73.99446353316307
6389.09,E 39 St & Lexington Ave,40.749350548,-73.97724998
5788.13,Lafayette St & E 8 St,40.73020660529954,-73.99102628231049
7680.03,Cathedral Pkwy & Broadway,40.804213,-73.96699104
7338.02,2 Ave & E 96 St,40.7839636,-73.9471673
4208.01,Sterling Pl & 5 Ave,40.678970070475735,-73.97855266928671
7867.04,Southern Blvd & Tiffany St,40.818185,-73.894143
5106.04,Greene Ave & Grandview Ave,40.709697,-73.907856
4640.01,Bushwick Ave & Harman St,40.69356,-73.92524
6596.10,34 Ave & 45 St,40.754795,-73.917014
7927.08,E 163 St & Tiffany St,40.821075,-73.895069
8862.02,Bailey Ave & W 238 St,40.88417,-73.89793
8369.08,Hughes Ave & Oak Tree Pl,40.85079,-73.88945
5854.10,Stuyvesant Walk & 1 Ave Loop,40.732339777151054,-73.97898383438587
8667.01,Grand Concourse & E 197 St,40.86945,-73.89148
4781.05,Nassau St & Duffield St,40.698477,-73.98384
5602.06,Greene St & Prince St,40.72511734422387,-73.99930492043495
4266.03,Clinton St & Union St,40.683104515,-73.997647762
5288.08,Park Pl & Church St,40.713051081,-74.009790897
3925.03,Sterling Pl & Rochester Ave,40.67128,-73.92825
4383.06,Hancock St & Stuyvesant Ave,40.684584618,-73.932213306
6587.04,Broadway & 49 St,40.77018641666667,-73.87575125
6753.08,1 Ave & E 62 St,40.7612274,-73.96094022
7524.16,Riverside Dr & W 91 St,40.79313480986663,-73.97700369358063
5453.06,Kenmare St & Elizabeth St,40.72054,-73.9949
4028.04,4 Ave & 3 St,40.673746,-73.985649
4798.10,Stephen St & Seneca Ave,40.6988,-73.9007
4663.06,Putnam Ave & Knickerbocker Ave,40.69545,-73.91164
6128.04,49 Ave & 21 St,40.74252,-73.948852
4534.06,Lexington Ave & Patchen Ave,40.6904,-73.9277
7823.03,Broadway & Moylan Pl,40.814216614,-73.959160566
3161.02,46 St & 6 Ave,40.645835519,-74.005589128
3000.08,6 Ave & 55 St,40.640636325,-74.011235833
3129.08,53 St & 5 Ave,40.643371,-74.011884
5401.03,59 St & 59 Rd,40.71790852734058,-73.908454477787
3090.06,Church Ave & McDonald Ave,40.642934918,-73.979055762
3987.06,5 Ave & 3 St,40.672843695,-73.983576894
5570.04,Grand Ave & Remsen Pl,40.72353,-73.89967
8212.01,Boston Rd & West Farms Rd,40.83998,-73.8806
3779.02,3 Ave & 17 St,40.666088939,-73.995667934
6526.05,8 Ave & W 38 St,40.75461,-73.99177
8272.08,E 176 St & Clinton Ave,40.843103886,-73.891549587
6212.08,Vernon Blvd & 47 Rd,40.7449067,-73.9534573
6179.07,Center Blvd & 51 Ave,40.743366080270214,-73.95960688591003
8281.06,Clay Ave & E 173 St,40.843264,-73.904867
7571.01,Sunken Meadow Comfort Station,40.79558,-73.91906
3327.01,Lott St & Erasmus St,40.64949,-73.95408
5764.02,65 Pl & 53 Ave,40.73145,-73.90022
5956.04,64 St & 51 Ave,40.73577,-73.90184
7543.15,3 Ave & E 112 St,40.795660495999996,-73.941444039
4853.06,Bridge St & York St,40.70122385,-73.984729052
4348.07,Carroll St & Columbia St,40.683042169,-74.003484964
3199.01,Caton Ave & E 7 St,40.647726536,-73.973663807
5422.04,Howard St & Lafayette St,40.71910537,-73.99973337
5515.02,E 2 St & Ave B,40.72217444,-73.98368779
8550.01,Jerome Ave & W 184 St,40.860814,-73.902541
5626.15,1 Ave & E 6 St,40.72633085971696,-73.98616880178452
6786.02,W 47 St & 9 Ave,40.761598349,-73.989975572
6541.03,E 48 St & 3 Ave,40.754855871,-73.971893907
6759.15,Crescent St & 34 Ave,40.76111412,-73.930609822
6307.07,61 St & 39 Ave,40.747084618,-73.902832747
4181.10,Brevoort Pl & Bedford Ave,40.68012,-73.95362
5351.07,Walker St & Baxter St,40.717411,-73.999573
4651.02,Clinton Ave & Myrtle Ave,40.693261,-73.968896
7023.09,Amsterdam Ave & W 60 St,40.771148122190155,-73.98699113854883
5216.04,Barclay St & Church St,40.71291224,-74.01020234
7662.13,Lexington Ave & E 127 St,40.805726,-73.936322
8550.04,Morris Ave & E 184 St,40.86008,-73.90079
5024.10,Water St & Fletcher St,40.706410755236135,-74.00559738278389
3885.06,Buffalo Ave & St John's Pl,40.67015,-73.92538
3660.07,7 Ave & 17 St,40.660937794931684,-73.98680448532104
5125.03,S 5 Pl & S 5 St,40.710451,-73.960876
8205.05,3 Ave & E 172 St,40.839586,-73.900277
6323.11,Ithaca St & Baxter Ave,40.74638,-73.88322
6951.03,28 Ave & 35 St,40.7671,-73.9169858
4325.03,Thomas S. Boyland St & Macon St,40.68491,-73.91493
6840.02,98 St & 25 Ave,40.76454,-73.87171
5045.05,Division Ave & Hooper St,40.70684203101325,-73.9544353965357
6709.01,31 Ave & 84 St,40.75947,-73.88431
6099.02,76 St & 45 Ave,40.7411,-73.88837
4087.01,Van Sinderen Ave & Atlantic Ave,40.67621,-73.90351
3373.01,E 51 St & Linden Blvd,40.65399,-73.92967
5922.08,Bank St & Hudson St,40.73652889,-74.00618026
7186.15,19 St & 24 Ave,40.7774552,-73.9225403
4334.02,Halsey St & Ralph Ave,40.68494,-73.92299
5128.04,Catherine St & Monroe St,40.71117444,-73.99682619
7631.23,Frederick Douglass Blvd & W 112 St,40.801694,-73.957145
7344.01,E 94 St & Madison Ave,40.785851052913884,-73.95482444378061
5034.03,Menahan St & Onderdonk Ave,40.70553,-73.9096
6682.08,E 60 St & York Ave,40.759107,-73.959223
4553.04,Kosciuszko St & Tompkins Ave,40.69128258,-73.9452416
6203.02,Jackson Ave & 46 Rd,40.74524768,-73.94733276
8435.04,Valentine Ave & E 181 St,40.854123869116,-73.89932222664356
3272.01,E 8 St & Caton Ave,40.648055,-73.972432
6692.03,104 St & 32 Ave,40.75951,-73.86491
3593.01,Maple St & Flatbush Ave,40.66026,-73.96045
3877.04,Pitkin Ave & Grafton St,40.66852,-73.91908
4179.03,Fulton St & Saratoga Ave,40.67853,-73.91642
5887.03,Queens Blvd & 56 Ave,40.73481,-73.87431
3651.04,West Drive & Prospect Park West,40.661147833,-73.979314923
6191.06,61 St & Woodside Ave,40.745250821,-73.90358901
4086.06,Henry St & W 9 St,40.676448107,-74.003186226
5539.06,Laight St & Hudson St,40.721764565,-74.006973743
4228.06,Chauncey St & Malcolm X Blvd,40.680445075,-73.928396225
6593.15,6 Ave & W 45 St,40.757691145,-73.983837485
3680.04,E New York Ave & Troy Ave,40.66227,-73.93762
7540.02,E 114 St & 1 Ave,40.794525385,-73.936125517
7126.01,21 St & Hoyt Ave S,40.774645,-73.923706
7925.04,W 133 St & 12 Ave,40.820426226,-73.959166288
4590.01,Soissons Landing,40.69231660719192,-74.01486575603485
7622.12,2 Ave & E 122 St,40.8006721,-73.9349
4920.13,South St & Broad St,40.70188858913366,-74.01089876890182
5392.04,63 St & 59 Dr,40.71852529,-73.901378036
8741.01,Bailey Ave & W 229 St,40.87449,-73.90467
3893.03,Eastern Pkwy & Schenectady Ave,40.668816209,-73.933618546
8575.02,Cedar Ave & W Fordham Rd,40.86156,-73.91219
3300.06,Snyder Ave & Schenectady Ave,40.649981141,-73.932869315
8597.01,Decatur Ave & E 197 St,40.865875959,-73.887801647
4319.07,Halsey St & Tompkins Ave,40.682401061,-73.943944454
7712.04,Alexander Ave & E 134 St,40.80721581,-73.926973462
6207.06,Judge St & Britton Ave,40.744647264,-73.881072998
4095.10,Van Brunt St & Van Dyke St,40.675903797,-74.014651775
8555.05,Loring Pl North & W 183 St,40.86042273,-73.909338474
8467.03,E 184 St & 3 Ave,40.854705811,-73.890201688
6426.05,57 St & 37 Ave,40.75048,-73.90513
5280.03,Fresh Pond Rd & Eliot Ave,40.714471698,-73.900937438
4936.21,Main St & Plymouth St,40.703781673548306,-73.99073392152786
4617.01,Lewis Ave & Kosciuszko St,40.69237074,-73.93705428
4789.03,Clark St & Henry St,40.69760127,-73.99344559
5210.01,Powers St & Olive St,40.713145614,-73.938971639
8465.01,Sedgwick Ave & W Burnside Ave,40.854947448,-73.91677618
4013.08,Columbia St & Lorraine St,40.674890161,-74.007497549
6927.03,Ditmars Blvd & 76 St,40.768442,-73.893531
6869.06,Butler St & 27 Ave,40.76521,-73.86483
6795.01,W 46 St & 11 Ave,40.76341379,-73.99667444
6215.04,W 25 St & 6 Ave,40.74395411,-73.99144871
4440.02,Yankee Ferry Terminal,40.68706579875912,-74.01675585121666
8021.11,Grand Concourse & E 161 St,40.82713380423556,-73.9227358996868
4719.04,St Felix Ave & 61 St,40.69715,-73.8936
4695.04,Irving Ave & Halsey St,40.69467,-73.90663
5869.04,Huron St & Franklin St,40.73266,-73.95826
7816.14,Brook Ave & E 148 St,40.814383,-73.915368
6190.03,W 18 St & 9 Ave,40.7435337324616,-74.00367558002472
4632.10,Central Ave & Woodbine St,40.69296,-73.91605
8711.02,W 225 St & Exterior St,40.873265,-73.906646
6735.03,50 St & 30 Ave,40.760083,-73.907107
7178.02,23 Ave & 27 St,40.776165,-73.9153175
8307.05,Macombs Rd & Featherbed Ln,40.84552,-73.91722
6191.04,62 St & 43 Ave,40.74261,-73.903
4125.07,7 Ave & Park Pl,40.677465796,-73.973345757
5159.04,Pike St & Monroe St,40.71173107,-73.99193043
7212.05,E 85 St & 3 Ave,40.777963519,-73.954305053
5752.09,Greenpoint Ave & West St,40.729852915,-73.958885074
7842.16,Amsterdam Ave & W 131 St,40.816304922,-73.954358578
7382.04,W 84 St & Columbus Ave,40.785121202,-73.972766161
6498.10,E 47 St & 2 Ave,40.753257394,-73.970404267
6691.11,E 56 St & 3 Ave,40.759035587,-73.967527747
7132.08,27 Ave & 3 St,40.77485,-73.9342
7974.01,3 Ave & E 163 St,40.823740363,-73.908719182
8226.06,Broadway & W 168 St,40.84089603193041,-73.93972098827362
8639.01,W 192 St & University Ave,40.866896152,-73.901941657
4278.03,Marcus Garvey Blvd & Macon St,40.682664275,-73.938012838
3208.07,Dahill Rd & 12 Ave,40.64591527,-73.980992556
6524.09,37 Ave & 113 St,40.75475,-73.8549
2733.03,67 St & Erik Pl,40.633385,-74.016562
3205.06,Brooklyn Ave & Tilden Ave,40.64725,-73.94352
4408.07,Macon St & Howard Ave,40.68452,-73.92011
4243.01,Commerce St & Van Brunt St,40.681179404,-74.008712292
3423.10,Clarkson Ave & E 40 St,40.65592,-73.94068
6885.01,24 Ave & 87 St,40.765407443,-73.882740855
8353.02,Amsterdam Ave & W 180 St,40.847419143,-73.931144834
5593.01,E 1 St & 1 Ave,40.72335597960796,-73.98864984512329
4057.04,Brooklyn Ave & Prospect Pl,40.674222708,-73.944503069
4522.07,State St & Smith St,40.68919611,-73.988269448
8802.05,W 233 St & Albany Crescent,40.879891753,-73.901779532
6460.06,62 St & 34 Ave,40.75201,-73.89986
8715.06,W 218 St & Broadway,40.871406674,-73.914635897
6039.06,Washington St & Gansevoort St,40.739323,-74.008119
8541.04,E 191 St & Bathgate Ave,40.859894991,-73.886315823
5300.05,Metropolitan Ave & Meeker Ave,40.714125037,-73.952246547
6579.03,58 St & 32 Ave,40.755609274,-73.90339005
4217.06,Degraw St & 3 Ave,40.67977,-73.9847
8096.03,Anderson Ave & W 164 St,40.832002997000004,-73.927396297
6787.02,30 Ave & 80 St,40.76109,-73.88838
6047.03,51 Ave & Van Loon St,40.738379002,-73.879013419
4768.02,Park Ave & Marcus Garvey Blvd,40.6985991,-73.941434383
6970.02,Ditmars Blvd & 102 St,40.768788218,-73.868106246
8831.03,Bailey Ave & W 234 St,40.88066,-73.90076
4203.04,Somers St & Broadway,40.67945,-73.90474
6581.14,24 St & 38 Ave,40.756351,-73.936515
4366.01,Halsey St & Broadway,40.685829163,-73.915616155
4757.06,Seneca Ave & Decatur St,40.69723,-73.89811
3300.04,E 49 St & Church Ave,40.65182,-73.93135
6937.07,Vernon Blvd & 10 St,40.767165303,-73.937585473
8379.06,Echo Pl & Grand Concourse,40.850052118,-73.906020761
6140.05,W 21 St & 6 Ave,40.74173969,-73.99415556
7920.05,Amsterdam Ave & W 136 St,40.819893599,-73.951691151
6747.06,W 49 St & 8 Ave,40.762466431,-73.988146782
5616.08,E 12 St & Ave C,40.727243,-73.976831
4497.09,Congress St & Hicks St,40.689313889,-73.999415517
7942.21,Riverside Dr & W 138 St,40.823187947,-73.955862641
7837.30,St Nicholas Ave & W 134 St,40.816166282,-73.94829154
8543.01,10 Ave & W 202 St,40.86124897,-73.921501279
4169.04,Pioneer St & Van Brunt St,40.679018378,-74.011219382
6492.08,9 Ave & W 33 St,40.752568,-73.996765
3431.02,New York Ave & Lenox Rd,40.654620171,-73.946869016
6278.05,Davis St & Jackson Ave,40.745524049,-73.945881128
6249.02,41 Ave & 80 St,40.74586153,-73.885404944
3751.05,Crown St & Troy Ave,40.665566921,-73.937278271
5550.09,Leonard St & Nassau Ave,40.7239567849954,-73.94984364509583
4519.04,Kosciuszko St & Nostrand Ave,40.690704346,-73.951325655
4096.08,Dean St & Rockaway Ave,40.67486,-73.91123
8447.07,Crescent Ave & Belmont Ave,40.853882909,-73.88667047
4963.13,Menahan St & Seneca Ave,40.70461,-73.91054
8410.10,E 182 St & Belmont Ave,40.850942492,-73.887839794
3776.05,Montgomery St & Franklin Ave,40.666303396,-73.96073699
7883.06,Lafayette Ave & Hunts Point Ave,40.816611528,-73.888158083
6935.01,Ditmars Blvd & 48 St,40.769120693,-73.900954247
4080.01,Schenectady Ave & Pacific St,40.676851034,-73.933151722
4214.04,Verona Pl & Fulton St,40.680465102,-73.947757244
4354.07,Atlantic Ave & Fort Greene Pl,40.68382604,-73.97632328
6594.02,85 St & Northern Blvd,40.75601,-73.88266
6814.01,Motorgate,40.7639089,-73.9477213
5288.12,Murray St & Greenwich St,40.714851505262516,-74.01122331619263
7026.08,Newtown Ave & 23 St,40.7713615,-73.9246145
8183.08,Nelson Ave & 167 St,40.83670566862804,-73.92608866095543
4354.05,S Portland Ave & Hanson Pl,40.68539567,-73.97431458
7910.10,Lenox Ave & W 146 St,40.821111,-73.935971
7992.04,Bradhurst Ave & W 148 St,40.825125,-73.941616
5411.07,Union Ave & N 12 St,40.71924,-73.95242
8081.01,Jerome Ave & Ogden Ave,40.829797,-73.931015
5099.03,White St & Johnson Ave,40.707174,-73.93581
8218.04,Ogden Ave & Merriam Ave,40.839142,-73.925961
3157.08,Turner Pl & Coney Island Ave,40.64521,-73.97073
6453.02,34 St & 38 Ave,40.752443,-73.929737
4727.06,Summerfield St & Cypress Ave,40.69662,-73.90056
3512.03,Winthrop St & Rogers Ave,40.65686,-73.95331
6146.01,99 St & 50 Ave,40.74278,-73.86226
5204.05,S 4 St & Wythe Ave,40.713050365,-73.965910912
6379.03,1 Ave & E 44 St,40.750056505,-73.969418168
6747.07,8 Ave & W 49 St,40.762060285,-73.986017823
4526.01,Grove St & Broadway,40.690617323,-73.923420906
4434.06,Monroe St & Tompkins Ave,40.686111927,-73.944649577
3625.04,Bedford Ave & Maple St,40.660316467,-73.956775427
4261.03,Patchen Ave & Bainbridge St,40.68143,-73.92565
5276.04,S 2 St & Kent Ave,40.714685321,-73.966359138
4148.07,Pacific St & Classon Ave,40.679166555,-73.958821177
5051.01,Wyckoff Ave & Jefferson St,40.707262754,-73.923935056
2898.01,Cortelyou Rd & Stratford Rd,40.63966,-73.96807
5300.06,Union Ave & Jackson St,40.71612215,-73.951909184
5115.01,Onderdonk Ave & Dekalb Ave,40.70863,-73.91497
3275.03,45 St & 4 Ave,40.649069905,-74.009390116
3350.04,E 38 St & Church Ave,40.65106,-73.94193
6158.06,57 St & 43 Ave,40.743161678,-73.908029079
4985.09,60 Pl & 67 Ave,40.704972029,-73.899668336
7059.08,West End Ave & W 60 St,40.77237,-73.99005
7962.01,Concourse Village West & E 156 St,40.823162,-73.923267
5820.08,E 13 St & 2 Ave,40.73153937464073,-73.9853024482727
7879.01,Melrose Ave & E 150 St,40.816827,-73.917338
6089.07,Lexington Ave & E 24 St,40.74025878,-73.98409214
3138.09,58 St & 2 Ave,40.644512,-74.021506
7858.02,Bergen Ave & E 152 St,40.817166,-73.914737
7456.03,E 106 St & 1 Ave,40.7892529,-73.93956237
7722.06,E 141 St & St Ann's Ave,40.808633,-73.916124
4812.02,Nassau St & Navy St,40.69839895,-73.98068914
6414.07,Roosevelt Ave & 104 St,40.74984,-73.86156
4546.05,Washington Park,40.6917823,-73.9737299
4623.02,Knickerbocker Ave & Halsey St,40.693,-73.90824
7003.06,Vernon Blvd & 31 Ave,40.7692475,-73.9354504
6495.17,31 St & Northern Blvd,40.75186951421875,-73.93349289894103
5099.02,Waterbury St & Stagg St,40.71019,-73.93734
6842.02,46 St & 28 Ave,40.763328,-73.908782
5168.04,Grove St & Fresh Pond Rd,40.71032,-73.89955
3523.06,29 St & 5 Ave,40.656986,-73.998194
6371.03,42 Ave & 108 St,40.74944,-73.85792
7144.02,31 St & Ditmars Blvd,40.776168,-73.910485
8748.02,E Mosholu Pkwy & E 204 St,40.8740704,-73.8833650931
4977.03,65 St & Otto Rd,40.70389,-73.89116
5785.10,Kent St & McGuinness Blvd,40.73124,-73.95161
7883.09,Seneca Ave & Irvine St,40.81872569990116,-73.88862490653992
4759.02,Willoughby Ave & Myrtle Ave,40.69757,-73.93098
6340.09,37 Ave & 63 St,40.74893,-73.89981
6964.05,Ditmars Blvd & 73 St,40.76817,-73.896293
8330.05,Crotona Ave & E 179 St,40.84664917,-73.889982462
8379.07,Creston Ave & E 178 St,40.850885,-73.906469
8692.04,Sedgwick Ave & W 195 St,40.87049,-73.90287
8582.02,Bainbridge Ave & E 193 St,40.86389,-73.89246
8118.02,Franklin Ave & E 169 St,40.831701875,-73.902126908
6486.07,38 St & Northern Blvd,40.752353907,-73.925377131
7888.10,Dawson St & Intervale Ave,40.819975615,-73.897328138
4072.02,Bergen St & Buffalo Ave,40.674733281,-73.925227284
3739.06,4 Ave & 17 St,40.665507,-73.993037
4479.06,Bond St & Fulton St,40.6896218879,-73.9830426872
6295.07,47 Ave & 104 St,40.7458,-73.85945
4488.08,Court St & State St,40.6902375,-73.99203074
8586.09,Jerome Ave & W Fordham Rd,40.86294,-73.90108
6593.14,W 43 St & 6 Ave,40.75527307,-73.98316936
6212.04,48 Ave & 5 St,40.744363287066875,-73.9558732509613
5270.08,Division St & Bowery,40.714193,-73.996732
8186.01,Fulton Ave & E 172 St,40.839229,-73.899047
6726.01,11 Ave & W 41 St,40.76030096,-73.99884222
4446.03,Pacific St & Smith St,40.687880939612775,-73.98939281702042
5550.05,Bedford Ave & Nassau Ave,40.72311651,-73.95212324
3791.02,Albany Ave & Carroll St,40.6667,-73.93972
4452.01,Lafayette Ave & Classon Ave,40.68900443,-73.96023854
3625.07,Rogers Ave & Lincoln Rd,40.66127,-73.95352
4187.04,Sumpter St & Fulton St,40.67923,-73.92588
8356.02,E Tremont Ave & E 176 St,40.847798,-73.901883
6869.10,Gillmore St & 27 Ave,40.76399,-73.8669
7945.07,Walton Ave & E 153 St,40.822351,-73.926907
6292.03,43 Ave & 40 St,40.74562,-73.92402
7606.01,W 106 St & Central Park West,40.7981856,-73.9605909006
3368.04,Caton Ave & Bedford Ave,40.65237,-73.95623
4101.17,President St & 4 Ave,40.676757,-73.983262
7023.04,W 59 St & 10 Ave,40.770513,-73.988038
3353.04,Greenwood Ave & E 4 St,40.650739,-73.977739
5805.05,Barrow St & Hudson St,40.73172428,-74.00674436
4033.16,Sterling Pl & Franklin Ave,40.67324785,-73.95689517
8265.09,Grand Concourse & E Mount Eden Ave,40.84301,-73.91172
4231.04,Underhill Ave & Pacific St,40.6804836,-73.9646795
6209.08,46 St & Queens Blvd,40.74349759836971,-73.91860529780388
4461.01,Clermont Ave & Lafayette Ave,40.68764484,-73.96968902
4214.03,Macon St & Nostrand Ave,40.6809833854,-73.9500479759
8665.09,Isham St & Broadway,40.86788,-73.919685
5414.07,Delancey St & Eldridge St,40.719383,-73.991479
7082.14,23 Rd & 31 St,40.77336750284339,-73.91382560133934
4775.01,Irving Ave & Palmetto St,40.698,-73.9127
4246.02,MacDonough St & Marcy Ave,40.68078,-73.94613
7575.01,Randall's Island - Field 10,40.795098,-73.923734
6304.04,98 St & 41 Ave,40.74773,-73.86649
4990.02,Railroad Ave & Kay Ave,40.705385923,-73.970934868
5788.16,E 11 St & 3 Ave,40.73127,-73.98849
5178.06,Graham Ave & Grand St,40.711863,-73.944024
5335.03,Bialystoker Pl & Delancey St,40.71622644,-73.98261206
6098.10,Broadway & E 21 St,40.739888408589955,-73.98958593606949
4031.05,St Marks Ave & Ralph Ave,40.673722982,-73.921952963
7713.11,W 116 St & Broadway,40.808174491,-73.964288354
4715.01,Franklin Ave & Myrtle Ave,40.694576621,-73.957916141
8325.12,Crotona Pkwy & Bronx Park S,40.847791195,-73.883038044
4220.02,Ralph Ave & Fulton St,40.67930913,-73.921990991
7741.01,Morningside Ave & W 123 St,40.81,-73.9551508
8068.01,Washington Ave & E 167 St,40.829867601,-73.907741547
7881.09,Old Broadway & W 133 St,40.818227291,-73.955316067
4576.11,Lafayette Ave & Stuyvesant Ave,40.692008853,-73.932419896
6287.02,111 St & 49 Ave,40.746097088,-73.85274148
3093.07,57 St & 4 Ave,40.642577767,-74.01679635
6322.01,E 33 St & 5 Ave,40.747598767,-73.983845234
3978.13,Garfield Pl & 8 Ave,40.671246529,-73.975039363
8303.06,Grand Concourse & E 175 St,40.84623003,-73.909249306
6905.02,100 St & Humphreys St,40.76574,-73.87012
4654.01,Norman St & Wyckoff Ave,40.69517,-73.90311
6981.16,37 St & 24 Ave,40.770182252,-73.911965847
6656.05,21 St & 38 Ave,40.75767529,-73.939028502
5360.02,60 St & 60 Rd,40.71592232709503,-73.90601366758347
6281.01,Gleane St & Britton Ave,40.74646,-73.87996
3902.06,Eastern Pkwy & Kingston Ave,40.66959,-73.94237
5453.01,Rivington St & Chrystie St,40.72110063,-73.9919254
3306.03,5 Ave & 41 St,40.649983,-74.005144
8020.01,Home St & Westchester Ave,40.827629,-73.886659
6876.04,Central Park S & 6 Ave,40.76590936,-73.97634151
4007.01,Schenectady Ave & Prospect Pl,40.67351,-73.93363
8526.03,3 Ave & E 189 St,40.85985,-73.89135
5359.11,Leonard St & Church St,40.717571,-74.005549
6227.02,31 St & Thomson Ave,40.74469738,-73.93540375
5059.02,McKibbin St & Bogart St,40.706237,-73.933871
6603.07,78 St & Northern Blvd,40.75499,-73.88905
8546.06,Tiebout Ave & E Fordham Rd,40.861915,-73.894831
5503.01,Morgan Ave & Lombardy St,40.72226,-73.93889
6334.03,Skillman Ave & Honeywell St,40.747148249032804,-73.92902433872223
7971.07,W 147 St & Adam Clayton Powell Blvd,40.82281,-73.937413
8052.02,E 165 St & Clay Ave,40.82809,-73.91288
3318.05,E 34 St & Church Ave,40.65116,-73.94577
8428.05,Sedgwick Ave & W Tremont Ave,40.85304455868985,-73.91830623149872
6194.06,29 St & Skillman Ave,40.744831,-73.938411
6576.07,102 St & 34 Ave,40.75584,-73.86621
6524.01,114 St & 39 Ave,40.7532,-73.853
5326.06,Stanton St & Mangin St,40.717852712,-73.97624433
6423.03,99 St & 38 Ave,40.75055,-73.86725
6183.03,Woodside Ave & 69 St,40.7428,-73.89584
5995.07,56 Ave & Junction Blvd,40.73716,-73.86625
3599.01,Midwood St & Utica Ave,40.661328673,-73.931778312
3984.02,Sterling Pl & New York Ave,40.672450423,-73.947913766
4837.03,Centre St & Seneca Ave,40.699764967,-73.901925683
5575.08,Ave D & E 12 St,40.72580614,-73.97422494
7642.04,E 133 St & Cypress Pl,40.802603245,-73.917276978
5492.05,Cleveland Pl & Spring St,40.722155929,-73.997483611
6364.10,6 Ave & W 34 St,40.74964,-73.98805
5382.07,Forsyth St & Grand St,40.71779817737835,-73.99316132068634
7983.04,Longfellow Ave & E 165 St,40.825511336,-73.887599826
3344.02,Park Circle & East Dr,40.651559949,-73.972181559
6215.07,W 27 St & 6 Ave,40.745143414,-73.990566969
6107.08,W 17 St & 7 Ave,40.740564236339516,-73.99852573871613
5788.12,E 12 St & 3 Ave,40.732321262,-73.988479495
7652.04,Lexington Ave & E 120 St,40.8013066,-73.9398167
5962.04,56 Ave & 92 St,40.736517429,-73.869848371
7074.01,Steinway St & Ditmars Blvd,40.772717,-73.906127
8111.04,Gerard Ave & E 165 St,40.831830859,-73.922399163
5806.01,53 Ave & 62 St,40.731634974,-73.901597857
8268.08,E 179 St & Daly Ave,40.843335748,-73.882486463
3315.05,44 St & 3 Ave,40.651315093,-74.01145947
6664.05,40 Ave & 9 St,40.75747335,-73.945209146
3202.06,48 St & 5 Ave,40.646395326,-74.009453177
6626.01,E 48 St & 5 Ave,40.75724567911726,-73.97805914282799
7265.10,E 89 St & 3 Ave,40.7806284,-73.9521667
7522.02,1 Ave & E 110 St,40.7923272,-73.9383
5403.05,Graham Ave & Herbert St,40.71929301,-73.94500379
4366.10,Decatur St & Saratoga Ave,40.68337357,-73.917081594
6717.06,9 Ave & W 45 St,40.76019252,-73.9912551
6925.09,2 Ave & E 72 St,40.7687620293096,-73.95840793848038
7084.12,E 81 St & York Ave,40.7728384,-73.94989233
6948.10,Broadway & W 58 St,40.76695317,-73.98169333
7092.06,E 77 St & 3 Ave,40.77314236,-73.95856158
5297.02,Vesey Pl & River Terrace,40.7153379,-74.01658354
7795.09,Frederick Douglass Blvd & W 129 St,40.8125511,-73.9492286
4452.03,Lexington Ave & Classon Ave,40.68676793,-73.95928168
6955.01,W 56 St & 10 Ave,40.768254,-73.988639
6408.08,75 St & 35 Ave,40.75091,-73.89111
6732.01,E 56 St & Madison Ave,40.761573,-73.972628
7981.27,W 140 St & Riverside Dr,40.824013,-73.954743
8008.03,Prospect Ave & E 167 St,40.826303,-73.898751
4550.05,Central Ave & Covert St,40.68929,-73.90951
6395.01,21 St & 43 Ave,40.75052534,-73.94594845
5633.04,Banker St & Meserole Ave,40.72606,-73.95621
6096.01,Van Cleef St & 108 St,40.74096,-73.85357
3657.06,Sterling St & Nostrand Ave,40.66318,-73.95076
7896.11,E 156 St & Brook Ave,40.819823,-73.912411
8615.01,Bainbridge Ave & E 196 St,40.86648,-73.89042
5248.05,Eliot Ave & 60 Ln,40.71391,-73.90299
4830.02,61 St & 60 Ln,40.70055,-73.8943
8366.07,University Ave & Brandt Pl,40.848354,-73.918389
3535.03,Winthrop St & Albany Ave,40.6577,-73.9398
6612.09,71 St & 32 Ave,40.75675,-73.89595
6724.01,107 St & 32 Ave,40.75996,-73.86224
6072.11,8 Ave & W 16 St,40.740775704,-74.001785278
6300.04,Skillman Ave & 43 Ave,40.746515989,-73.932359576
7059.01,11 Ave & W 59 St,40.771426678,-73.990614057
6865.03,21 St & 31 Dr,40.7659,-73.930819
3056.05,12 Ave & 36 St,40.643847704,-73.986504674
2872.02,63 St & 5 Ave,40.637742281,-74.017769933
6825.03,77 St & 24 Ave,40.764332771,-73.891556978
6332.09,75 St & Roosevelt Ave,40.746780634,-73.89035964
7855.03,Adam Clayton Powell Blvd & W 138 St,40.816836596,-73.942307115
7204.08,E 89 St & York Ave,40.7779453,-73.946041
6339.06,W 25 St & 9 Ave,40.74779129,-74.000839472
5779.08,1 Ave & E 16 St,40.732343078,-73.981625319
4190.06,Grand Ave & Bergen St,40.678099632,-73.962227106
4824.03,Stockholm St & Wilson Ave,40.699304,-73.923044
5115.05,Willoughby Ave & Onderdonk Ave,40.709802747,-73.917237878
5509.02,Washington St & Laight St,40.72249198,-74.010459781
5164.05,Broadway & Berry St,40.71044147,-73.965099096
6390.05,93 St & Roosevelt Ave,40.74888,-73.87368
6563.12,35 Ave & 37 St,40.7557327,-73.9236611
6750.16,35 St & Broadway,40.760230064,-73.922395349
8815.01,Sedgwick Ave & Giles Pl,40.881060839,-73.896525025
6575.03,E 51 St & 2 Ave,40.755107045,-73.967491984
6839.04,E 58 St & Madison Ave,40.763312459,-73.972828031
6809.09,W 55 St & 6 Ave,40.763136625,-73.97895062
7484.05,W 87 St & West End Ave,40.789622,-73.97757
4818.03,Union Ave & Wallabout St,40.700311899,-73.950328827
4066.15,Bedford Ave & Bergen St,40.676457167,-73.952882171
6346.02,Warren St & Roosevelt Ave,40.74919,-73.87043
3121.01,Cortelyou Rd & Albany Ave,40.64483,-73.93853
8316.02,Audubon Ave & W 179 St,40.847305,-73.933291
3011.03,59 St & 4 Ave,40.641269,-74.017651
6257.03,W 24 St & 7 Ave,40.74487634,-73.99529885
6827.11,Crescent St & Broadway,40.7633589,-73.9286471
8624.01,Webb Ave & W 190 St,40.8660052,-73.904254892
4862.07,Cooper Ave & 65 Pl,40.69953,-73.88873
7984.04,Grand Concourse & E 156 St,40.823429,-73.924689
7821.01,Morris Ave & E 142 St,40.814469,-73.924963
3376.02,Parade Pl & Crooke Ave,40.651847,-73.965248
4428.02,Cumberland St & Lafayette Ave,40.68753406,-73.97265183
4253.02,Thomas S. Boyland St & Marion St,40.6814658848122,-73.91415685415268
4880.11,Madison St & Seneca Ave,40.70183,-73.90625
4064.03,Bergen St & Saratoga Ave,40.67423,-73.91656
5241.02,Metropolitan Ave & Vandervoort Ave,40.71429,-73.93323
4086.05,Columbia St & W 9 St,40.6769993,-74.00647134
6960.10,3 Ave & E 71 St,40.76873687,-73.96119945
5225.04,Metropolitan Ave & Flushing Ave,40.713375211,-73.915647149
7066.01,20 Ave & 48 St,40.772899,-73.896849
4500.07,Lexington Ave & Stuyvesant Ave,40.689727068,-73.933550715
4965.01,Lorimer St & Broadway,40.704125762,-73.948209643
6804.01,49 St & 25 Ave,40.764342189,-73.904572129
7957.11,E 158 St & Melrose Ave,40.822144032,-73.914836645
6806.06,35 Ave & 10 St,40.76315481910373,-73.93985509872437
7577.27,Central Park W & W 103 St,40.79558954105342,-73.96188408136368
7707.08,Brook Ave & E 138 St,40.807408,-73.91924
3704.01,Washington Ave & Empire Blvd,40.66314,-73.9605695
8679.03,10 Ave & W 215 St,40.86932465640094,-73.91519755125046
3999.06,Park Pl & Buffalo Ave,40.67202,-73.92539
6621.06,31 Ave & 57 St,40.757357,-73.904726
4656.03,Pulaski St & Marcus Garvey Blvd,40.693434954,-73.939975739
5433.03,Richardson St & N Henry St,40.71907891179564,-73.94223690032959
6231.01,46 Ave & Junction Blvd,40.744023204,-73.867814779
3934.06,Sterling Pl & Schenectady Ave,40.671614528,-73.933763504
8344.09,University Ave & Macombs Rd,40.8496401,-73.9161206
4196.01,Lewis Ave & Fulton St,40.67972,-73.93467
8242.04,Amsterdam Ave & W 172 St,40.842173,-73.935111
3504.02,New York Ave & Hawthorne St,40.65794,-73.94735
8619.02,Jerome Ave & W 193 St,40.866454601,-73.897983551
6584.12,E 47 St & Park Ave,40.75510267,-73.97498696
7713.01,W 113 St & Broadway,40.805973,-73.964928
4362.04,Pacific St & Nevins St,40.6853761,-73.98302136
5065.14,Cliff St & Fulton St,40.70838,-74.00495
8752.01,Bedford Park Blvd & Paul Ave,40.87444,-73.89186
6004.06,E 27 St & 1 Ave,40.739445,-73.976806
8416.10,W 186 St & St Nicholas Ave,40.852156043,-73.931147337
5267.09,Roebling St & N 4 St,40.714689851,-73.957347274
7942.07,Broadway & W 138 St,40.8216573,-73.953640699
6352.01,44 Dr & Jackson Ave,40.74718234,-73.9432635
5584.05,E 7 St & Ave B,40.7251285241158,-73.98131668567657
6617.02,E 53 St & 3 Ave,40.757606626,-73.969095469
3719.02,Lefferts Ave & Albany Ave,40.662917852,-73.940284014
5712.03,Cooper Square & Astor Pl,40.729656935,-73.99077034
3639.04,Schenectady Ave & Maple St,40.66176939,-73.934489846
4798.02,Forest Ave & Summerfield St,40.699236631,-73.897939324
6286.02,46 Ave & 5 St,40.74725318,-73.954589963
6941.03,97 St & 23 Ave,40.768260002,-73.873332739
4968.03,Bridge St & Water St,40.702969341552716,-73.98469090461731
5025.02,Madison St & Forest Ave,40.705534935,-73.902462244
3164.04,Brooklyn Ave & Beverley Rd,40.645550489,-73.943221688
4850.04,Tompkins Ave & Hopkins St,40.699614406,-73.947111845
6089.08,Lexington Ave & E 26 St,40.741459,-73.983293
3135.04,Chester Ave & 12 Ave,40.644367,-73.984276
5489.03,Kent Ave & N 7 St,40.72036775298455,-73.96165072917938
8579.05,Academy St & Nagle Ave,40.862562,-73.922661
7098.05,27 Ave & 9 St,40.7739825,-73.9309134
3211.06,53 St & 2 Ave,40.64744,-74.018846
7868.05,Gerard Ave & E 146 St,40.817755,-73.92965
4519.02,Greene Ave & Nostrand Ave,40.6883337,-73.950916
5289.05,56 St & Arnold Ave,40.71484,-73.909
8080.01,Freeman St & Reverend James A Polite Ave,40.830579281,-73.894695759
6067.01,48 Ave & 37 St,40.740366936,-73.929000258
6165.06,Whitney Ave & Ketcham Pl,40.742514968,-73.878240824
3856.03,Flatbush Ave & Eastern Pkwy,40.668757,-73.966438
3303.03,Caton Ave & Argyle Rd,40.649681,-73.967829
4048.03,Bergen St & Troy Ave,40.67524,-73.93596
4105.01,Pacific St & Ralph Ave,40.67607,-73.92171
8187.04,Edgecombe Ave & W 167 St,40.838191,-73.936085
3762.08,10 St & 7 Ave,40.666315317,-73.981864095
2821.05,7 Ave & 62 St,40.63559556,-74.012992382
8236.01,Crotona Park North & Prospect Ave,40.841204166,-73.892506361
4821.06,Cadman Plaza E & Red Cross Pl,40.69991755,-73.98971773
4244.06,Broadway & Furman Ave,40.681239367,-73.907429934
7163.07,20 Ave & 42 St,40.775401235,-73.900015593
8707.04,Strong St & University Ave,40.871237278,-73.899164557
8196.02,Southern Blvd & E 175 St,40.839417934,-73.886380792
3480.04,Parkside Ave & Flatbush Ave,40.655652881,-73.95957910999999
8040.03,E 167 St & Bryant Ave,40.826706,-73.888719
3019.02,65 St & 2 Ave,40.640493,-74.02564
3966.01,St Johns Pl & Utica Ave,40.6705,-73.9308
4801.04,Melrose St & Broadway,40.697481,-73.935877
6356.01,87 St & Roosevelt Ave,40.74825,-73.87936
6660.07,96 St & Northern Blvd,40.757102966,-73.872200608
8494.01,E 182 St & Morris Ave,40.856535792,-73.902595282
5779.11,Ave A & E 14 St,40.73031071000895,-73.98047178983688
5746.14,E 11 St & 1 Ave,40.72953837,-73.98426726
6441.06,W 37 St & Broadway,40.75227093837409,-73.98770570755005
8013.07,St Nicholas Ave & W 150 St,40.827212,-73.942722
8249.10,Walton Ave & E 171 St,40.840683,-73.915073
6197.08,E 33 St & 1 Ave,40.74322681432173,-73.97449783980846
6182.02,W 20 St & 7 Ave,40.74238787,-73.99726235
7997.08,W 145 St & Amsterdam Ave,40.825244,-73.947257
7243.04,E 84 St & Park Ave,40.77862688,-73.95772073
4077.07,Court St & Nelson St,40.6763947,-73.99869893
5506.10,Ave D & E 8 St,40.72368361,-73.97574813
7818.17,W 129 St & Convent Ave,40.814394437915816,-73.95324736833572
8089.05,Broadway & W 153 St,40.831327,-73.946665
7913.15,Cauldwell Ave & E 158 St,40.81989,-73.908351
6022.04,E 16 St & 5 Ave,40.73726186,-73.99238967
5669.10,St Marks Pl & 2 Ave,40.7284186,-73.98713956
7744.06,Lincoln Ave & E 138 St,40.810893,-73.927311
7304.08,W 82 St & Central Park West,40.78275,-73.97137
7976.08,Edgecombe Ave & W 145 St,40.823498,-73.94386
4307.13,President St & Henry St,40.6828003,-73.99990419
7116.04,W 67 St & Broadway,40.77492513,-73.98266566
5687.04,MacDougal St & Prince St,40.72710258,-74.00297088
5340.01,N 7 St & Driggs Ave,40.716983438,-73.956276059
4762.04,Clinton Ave & Flushing Ave,40.697960496,-73.969928861
6611.02,W 37 St & 10 Ave,40.756632566,-73.998132944
6019.04,Ash St & Manhattan Ave,40.738105059,-73.955183148
6896.16,E 68 St & 3 Ave,40.766865492,-73.961973429
6578.01,W 34 St & 11 Ave,40.755960703,-74.00206542
6636.04,32 Ave & 84 St,40.7578758,-73.884070873
7141.07,Central Park West & W 72 St,40.77579376683666,-73.9762057363987
6651.01,104 St & Northern Blvd,40.757506609,-73.864545822
5308.04,Metropolitan Ave & Bedford Ave,40.715326309,-73.960133791
6072.16,Gansevoort St & Hudson St,40.7393924,-74.005185485
3280.04,Fort Hamilton Pkwy & E 2 St,40.648005,-73.979342
8616.06,Riverside Dr & Broadway,40.865511894,-73.928016663
4996.08,McKibbin St & Manhattan Ave,40.705018878,-73.944139838
4107.13,Dean St & Franklin Ave,40.677611351,-73.955899715
8036.05,Morris Ave & E 163 St,40.827113986,-73.917769432
3960.01,Lincoln Pl & Classon Ave,40.672164083,-73.960809827
6740.10,W 51 St & 6 Ave,40.760839701,-73.980154276
6224.03,W 22 St & 8 Ave,40.744828343,-73.99933815
3555.04,24 St & 5 Ave,40.659473181,-73.994938731
4399.03,Eldert St & Bushwick Ave,40.68652,-73.91321
4771.07,N Portland Ave & Flushing Ave,40.697898507,-73.976676464
4301.04,Macon St & Patchen Ave,40.683762312,-73.926078558
6306.06,W 22 St & 10 Ave,40.746883631,-74.00428772
6667.04,W 47 St & 6 Ave,40.757947683,-73.983229876
5108.01,Scholes St & Manhattan Ave,40.708630919,-73.944708347
5730.08,Greenwich St & W Houston St,40.728714347,-74.008563399
4116.09,Washington Ave & Park Pl,40.676061749,-73.963360548
5755.01,Washington Pl & Broadway,40.729295015,-73.993865371
6297.08,W 25 St & 8 Ave,40.74649996333341,-73.99732626293645
3847.04,Carroll St & Franklin Ave,40.668072343,-73.958684444
7113.08,East End Ave & E 86 St,40.77518615,-73.94446054
3220.01,58 St & Pier 4,40.646497488,-74.026134729
7311.07,W 78 St & Broadway,40.783528686,-73.981222868
3460.02,36 St & 3 Ave,40.655716,-74.006664
3940.04,Sigourney St & Columbia St,40.672789454,-74.009106755
3113.10,Stratford Rd & Beverley Rd,40.64378,-73.96867
6602.05,W 42 St & 8 Ave,40.758012056,-73.990650654
4432.10,Central Ave & Decatur St,40.6882,-73.90798
5584.04,E 6 St & Ave B,40.72453734,-73.98185424
5125.07,Broadway & Roebling St,40.709235549,-73.9605335
5506.14,E 6 St & Ave D,40.72228087,-73.97668709
4368.05,Monroe St & Bedford Ave,40.685154319,-73.953822374
5736.09,E 14 St & Ave B,40.729450583,-73.977872014
5553.10,E 2 St & Ave A,40.723246694,-73.98602283
5450.01,N 10 St & Berry St,40.719984293,-73.956930518
6325.01,43 St & Skillman Ave,40.747104287,-73.920856595
5659.05,E 10 St & Ave A,40.727381945,-73.981466889
5323.06,Sharon St & Olive St,40.715373158,-73.938533306
4310.06,Macon St & Lewis Ave,40.682819366,-73.934809208
3125.09,Ocean Pkwy & Church Ave,40.644524217,-73.974538326
7049.04,E 82 St & East End Ave,40.7724607,-73.9468208
4437.01,3 Ave & Schermerhorn St,40.686902523,-73.979693055
5216.06,Vesey St & Church St,40.712147593,-74.010549903
4298.05,Degraw St & Smith St,40.683180213,-73.993411303
6450.12,8 Ave & W 33 St,40.751814127,-73.993798018
7602.05,Lenox Ave & W 111 St,40.7987859,-73.9523
6526.01,W 35 St & 8 Ave,40.752926588,-73.992683291
6055.08,E 20 St & Park Ave,40.73827428,-73.98751968
6364.07,6 Ave & W 33 St,40.74901271,-73.98848395
5073.07,Greenwich St & Rector St,40.708049178,-74.012877584
4249.10,St Marks Pl & 4 Ave,40.808639633333335,-73.91919373333333
5365.02,Columbia St & Rivington St,40.71739973,-73.98016555
4281.08,Bergen St & Flatbush Ave,40.681062102,-73.975963712
6310.06,27 St & Hunter St,40.748531222,-73.940715671
7407.13,E 102 St & 1 Ave,40.786872506,-73.941594481
8353.09,Amsterdam Ave & W 183 St,40.849117041,-73.930382848
4237.01,Lewis Ave & Decatur St,40.6814598,-73.934903
4290.06,Wyckoff St & 3 Ave,40.682796121,-73.982671738
4732.08,Carlton Ave & Flushing Ave,40.697538733,-73.973632097
4898.02,Irving Ave & DeKalb Ave,40.702870607,-73.921116471
8432.11,Amsterdam Ave & W 189 St,40.853216171,-73.927109718
7365.13,E 95 St & 3 Ave,40.7849032,-73.950503
8072.06,Sherman Ave & E 166 St,40.83130549267296,-73.91744792461395
5721.07,Thompson St & Bleecker St,40.72840059450829,-73.99968780577183
4608.01,Broadway & Kosciuszko St,40.69329,-73.92852
4979.07,Knickerbocker Ave & George St,40.704538226,-73.928218365
4846.01,South St & Whitehall St,40.70122128,-74.01234218
8745.01,Marble Hill Ave & W 225 St,40.87471,-73.91099
6801.01,E 59 St & Madison Ave,40.763543129,-73.971560478
8879.03,Broadway & W 238 St,40.885455847,-73.900468946
5238.05,St James Pl & Oliver St,40.713089108,-73.99859523800001
3620.02,Windsor Pl & 8 Ave,40.660916805,-73.983035564
4074.14,Classon Ave & St Marks Ave,40.676513,-73.959431
7207.08,W 70 St & Amsterdam Ave,40.77748046,-73.98288594
3648.08,Kingston Ave & E New York Ave,40.662152529,-73.94273603
8358.03,W 180 St & Ft Washington Ave,40.849966168,-73.938495278
3457.03,Prospect Park SW & Vanderbilt St,40.655121565,-73.973337293
7619.05,W 107 St & Columbus Ave,40.7997568,-73.9621128676
4494.04,Lafayette Ave & St James Pl,40.688645244,-73.96483767
6280.12,E 32 St & Park Ave,40.7457121,-73.98194829
7079.06,Central Park West & W 68 St,40.7734066,-73.97782542
3834.10,6 St & 7 Ave,40.668644547,-73.979977608
4422.04,Columbia St & Degraw St,40.6859296,-74.00242364
6890.01,W 53 St & 10 Ave,40.76669671,-73.99061728
5388.01,Kent Ave & Grand St,40.716690183,-73.965761304
5184.08,West St & Liberty St,40.711444,-74.014847
6218.04,39 St & Queens Blvd,40.744322896,-73.926028252
5004.02,Boerum St & Broadway,40.705418825,-73.949810028
8399.06,Fort Washington Ave & W 183 St,40.852393866,-73.9377985
4107.05,Franklin Ave & St Marks Ave,40.675740719,-73.956115246
4301.07,MacDonough St & Malcolm X Blvd,40.682723284,-73.929320574
5458.02,N 5 St & Northside Piers,40.7585361,-73.99308633333334
7807.04,Beck St & Leggett Ave,40.815077,-73.899939
7579.01,Pleasant Ave & E 120 St,40.797355413,-73.931342244
7188.13,Madison Ave & E 82 St,40.7781314,-73.96069399
5489.06,N 9 St & Wythe Ave,40.72054,-73.959
4818.02,Nostrand Ave & Flushing Ave,40.69928,-73.953259
3538.09,11 Ave & Prospect Ave,40.656419635,-73.977245331
3148.08,E 17 St & Beverley Rd,40.64466,-73.96322
6260.04,36 St & Queens Blvd,40.743931055,-73.928986788
6527.07,75 St & Northern Blvd,40.754600525,-73.891774416
4687.03,Cypress Ave & St Felix Ave,40.69539392,-73.898902774
3214.04,Tilden Ave & Lott St,40.646621585,-73.953963161
8018.04,Riverside Dr & W 145 St,40.827335596,-73.951945305
6679.11,35 St & 34 Ave,40.7580583,-73.9242751
8381.04,W 181 St & Riverside Dr,40.851601362,-73.94175458
6080.07,90 St & 51 Ave,40.739286661,-73.87410748
6435.02,48 St & 37 Ave,40.751649737,-73.914981008
8601.04,Grand Concourse & E 192 St,40.864561915,-73.895176888
8511.08,Broadway & W 192 St,40.857994,-73.932173
4921.04,Cypress Ave & Palmetto St,40.701575637,-73.908807755
6605.08,34 St & 35 Ave,40.7569332,-73.9262231
6380.10,39 Ave & 99 St,40.749663711,-73.866806984
3722.04,Prospect Park West & 8 St,40.665011406,-73.97629106
8153.10,W 163 St & Edgecombe Ave,40.835798,-73.937496
6374.05,71 St & 37 Ave,40.748880982,-73.894620419
7935.07,Brook Ave & E 157 St,40.820833206,-73.911759973
6143.01,36 St & 47 Ave,40.742136717,-73.9292413
5027.02,Bushwick Ave & McKibbin St,40.705606699,-73.93940866
8226.07,W 168 St & Ft Washington Ave,40.842059493,-73.942083359
6401.01,43 St & 37 Ave,40.750112772,-73.920021653
8327.15,Featherbed Ln & Nelson Ave,40.846204281,-73.919706941
6314.02,Elmhurst Ave & Roosevelt Ave,40.74864,-73.87619
8394.15,Amsterdam Ave & W 186 St,40.851088047,-73.928615332
6149.02,65 Pl & Woodside Ave,40.743316293,-73.899039626
8653.09,Jerome Ave & W 195 St,40.868772388,-73.896499395
6346.07,Warren St & Roosevelt Ave,40.74930656,-73.870724559
6475.07,86 St & 35 Ave,40.752451539,-73.880961299
4615.01,Wyckoff Ave & Cooper Ave,40.69348681,-73.900660634
8458.03,Pinehurst Ave & W 187 St,40.855289221,-73.937945247
3981.10,Dwight St & Van Dyke St,40.673443079,-74.012054801
6358.05,48 St & Barnett Ave,40.750016404259334,-73.91540944576263
3668.04,21 St & 4 Ave,40.662549257,-73.995471835
5883.06,Van Dam St & Greenpoint Ave,40.734476089,-73.937841773
3266.01,7 Ave & 40 St,40.648181915,-73.999961495
6392.02,39 Ave & 54 St,40.74891,-73.90899
6772.11,30 Ave & 96 St,40.76086,-73.87308
3547.04,19 St & 8 Ave,40.658502579,-73.985641479
8362.02,Walton Ave & E 176 St,40.84844327,-73.909621239
8167.02,Wilkins Ave & Crotona Park E,40.835273385,-73.895093679
6701.05,Jackson Mill Rd & 93 St,40.75874,-73.87535
7737.06,St Mary's St & Jackson Ave,40.808867097,-73.910844684
6499.06,100 St & 37 Ave,40.75243,-73.86717
6337.09,103 St & 41 Ave,40.748612165,-73.862827539
7639.06,Walnut Ave & E 136 St,40.801800847,-73.909404397
8795.03,Grand Concourse & E Mosholu Pkwy S,40.877856851,-73.884750128
8216.02,Waterloo Pl & Crotona Park East,40.83932662,-73.88852787
4129.10,Herkimer St & Eastern Pkwy,40.677437186,-73.90848887
8859.03,Van Cortlandt Park S & Dickinson Ave,40.884352207,-73.887902737
3585.06,Nostrand Ave & Rutland Rd,40.659445882,-73.950475574
8558.01,Southern Blvd & Xavier Way,40.861603856,-73.881169796
8734.02,Jerome Ave & Bedford Park Blvd E,40.873111606,-73.889835596
8532.03,Margaret Corbin Plz & Ft Washington Ave,40.859296799,-73.933802485
8358.10,Cabrini Blvd & W 177 St,40.848282,-73.941343
5409.02,Page Pl & Grand Ave,40.718226671,-73.918098569
3278.07,Brooklyn Ave & Snyder Ave,40.649108768,-73.943541884
5273.01,Metropolitan Ave & Stewart Ave,40.714075327,-73.92784214
7626.02,Willow Ave & E 133 St,40.800881147,-73.913927674
8806.01,W 230 St & Marble Hill Ave,40.878027916,-73.907949328
7443.17,E 98 St & Park Ave,40.78813,-73.95206
6230.04,FDR Drive & E 35 St,40.744219,-73.97121214
6474.11,E 40 St & 5 Ave,40.752062307,-73.9816324043
5847.08,Washington St & Barrow St,40.73191132323174,-74.008769094944
8766.03,Grand Concourse & E 205 St,40.875531,-73.8863864831
6762.04,3 Ave & E 62 St,40.76312584,-73.96526895
6122.09,2 Ave & E 29 St,40.741723510974715,-73.97809267044067
4395.07,Hanson Pl & Ashland Pl,40.68506807308177,-73.97790759801863
4157.10,Bergen St & Vanderbilt Ave,40.6794388,-73.9680438
7814.01,Adam Clayton Powell Blvd & W 132 St,40.813539,-73.94521
6266.06,9 Ave & W 22 St,40.7454973,-74.00197139
5905.12,Broadway & E 14 St,40.73454567,-73.99074142
6912.01,7 Ave & Central Park South,40.7667405590595,-73.9790689945221
4962.01,Broadway & Battery Pl,40.70463334,-74.01361706
4140.03,Pacific St & Nostrand Ave,40.6776,-73.94963
8065.13,W 155 St & Frederick Douglass Blvd,40.82923,-73.936996
5523.02,Stanton St & Chrystie St,40.72229346,-73.99147535
4677.01,Cadman Plaza E & Tillary St,40.69597683,-73.99014892
5679.08,Bleecker St & Crosby St,40.72615604980408,-73.99510189890862
6551.11,E 43 St & Madison Ave,40.75354681867074,-73.97896572947502
7288.04,Riverside Dr & W 72 St,40.78057799010334,-73.98562431335449
5626.07,E 7 St & Ave A,40.72621788,-73.98379855
7788.13,Southern Blvd & E 149 St,40.811892,-73.904192
8054.04,Riverside Dr & W 148 St,40.829114,-73.950426
7667.04,Madison Ave & E 120 St,40.80295,-73.942954
6429.01,Queens Plaza North & Crescent St,40.75110165,-73.94073717
4637.06,Fulton St & Adams St,40.692418292578466,-73.98949474096298
7798.02,Willis Ave & E 143 St,40.812299,-73.92037
4683.02,Emerson Pl & Myrtle Ave,40.69363137,-73.96223558
4380.08,Henry St & Degraw St,40.6847514,-73.99917254
7323.09,5 Ave & E 87 St,40.78232260730881,-73.95987510681152
7286.02,E 93 St & 2 Ave,40.782454175279874,-73.9489196240902
5772.05,Morton St & Washington St,40.73115,-74.00887
4202.04,Richards St & Delavan St,40.6794327,-74.00785041
7009.06,43 St & 23 Ave,40.769673,-73.906018
8257.03,Crotona Ave & Crotona Park N,40.84234,-73.89409
7618.01,Bronx Shore Comfort Station,40.80046,-73.92404
3230.01,Caton Ave & E 10 St,40.648481,-73.97058
6319.04,11 St & 44 Rd,40.749207,-73.949373
8160.03,Sheridan Ave & E 168 St,40.835374236,-73.915457249
6740.01,W 52 St & 6 Ave,40.761305332,-73.980354071
7777.02,E 144 St & Brook Ave,40.811890483,-73.917138219
6966.04,31 Ave & 14 St,40.7682,-73.9322662
5267.08,Grand St & Havemeyer St,40.712854147,-73.957005262
7032.06,Hazen St & 20 Ave,40.772094607,-73.895064473
7528.31,E 106 St & Madison Ave,40.793405771,-73.949290872
7687.05,E 135 St & St Ann's Ave,40.805113077,-73.919003248
6224.06,8 Ave & W 24 St,40.745645046,-73.998280644
5971.08,E 20 St & 2 Ave,40.735834718,-73.981773019
3928.08,Eastern Pkwy & Washington Ave,40.671727777,-73.963371873
5922.07,Perry St & Bleecker St,40.735352039,-74.004756689
3498.09,Prospect Park SW & 16 St,40.657295346,-73.974224567
6248.08,5 Ave & E 30 St,40.7459849,-73.98629487
6662.01,49 St & 31 Ave,40.758178473,-73.909739614
5626.13,St Marks Pl & 1 Ave,40.72779126,-73.98564945
5755.09,Washington Square E,40.73049393,-73.9957214
6131.13,E 27 St & Park Ave S,40.74275179648995,-73.9847157150507
6079.03,1 Ave & E 30 St,40.741541505,-73.975334883
6216.01,74 St & Woodside Ave,40.74325,-73.89079
6170.02,Vernon Blvd & 50 Ave,40.74232744,-73.95411749
7488.24,E 102 St & Park Ave,40.790477753,-73.950279951
5687.11,King St & Varick St,40.727787971,-74.005262613
6033.01,31 Pl & Hunters Point Ave,40.74021356884924,-73.93537044525146
8456.02,Creston Ave & E 181 St,40.854943752,-73.90297544
8664.06,Decatur Ave & Bedford Park Blvd,40.868128777,-73.884081125
8213.01,Plaza Dr & W 170 St,40.840606809,-73.917870045
8489.06,E 187 St & 3 Ave,40.857211471,-73.890804529
8182.02,Crotona Park East & E 173 St,40.837037,-73.890413
6072.06,Greenwich Ave & 8 Ave,40.7390169121,-74.0026376103
6890.06,W 50 St & 10 Ave,40.764769673,-73.992043972
7068.07,8 St & Astoria Blvd,40.772602201,-73.932712317
8190.03,E 171 St & Webster Ave,40.838379,-73.905838
5146.03,Stanhope St & Fairview Ave,40.710066676,-73.911037326
7579.11,E 117 St & 1 Ave,40.796568155,-73.934491396
5445.07,Stanton St & Norfolk St,40.720841527,-73.986467838
7781.10,E 142 St & 3 Ave,40.812718987,-73.92367363
7111.10,36 St & Ditmars Blvd,40.774219513,-73.908311367
5374.01,Norfolk St & Broome St,40.717029333,-73.988284707
5235.05,S 3 St & Bedford Ave,40.712607265,-73.962671757
5021.05,Kent Ave & Division Ave,40.706133366,-73.968134999
5579.04,55 Dr & Maurice Ave,40.726169467,-73.909241915
5616.01,E 9 St & Ave C,40.725223422,-73.977755666
5696.03,Pier 40 - Hudson River Park,40.728090525,-74.011269212
6551.02,W 44 St & 5 Ave,40.754864573,-73.980181456
5270.05,Pike St & E Broadway,40.71406667,-73.99293911
6498.09,E 47 St & 1 Ave,40.75206862,-73.96784384
5947.04,W 13 St & 5 Ave,40.735360384,-73.994700551
5902.07,Eagle St & Manhattan Ave,40.735217,-73.954926
4051.01,Berkeley Pl & 7 Ave,40.675254226,-73.97510314
7623.13,Riverside Dr & W 104 St,40.801293373,-73.971150994
5676.04,Calyer St & West St,40.726962328,-73.958372355
5288.09,Warren St & W Broadway,40.714380741,-74.008973598
5500.07,6 Ave & Canal St,40.722353458,-74.005621195
5593.02,E 2 St & 2 Ave,40.725165009,-73.991187215
5666.11,Norman Ave & Leonard St,40.725819,-73.950815
6349.03,39 Ave & 56 St,40.74837482,-73.906904221
5145.02,Albany St & Greenwich St,40.709267,-74.013247
7840.11,E 147 St & Bergen Ave,40.814607263,-73.918247938
6176.11,40 St & Queens Blvd,40.743478537,-73.924253464
6569.09,W 35 St & 9 Ave,40.754029036,-73.996297956
8500.01,Grand Ave & W 181 St,40.856302,-73.907302
6030.06,W 15 St & 7 Ave,40.739239573,-73.999415517
6932.14,E 67 St & Park Ave,40.76780080148132,-73.96592080593109
5785.05,Greenpoint Ave & Manhattan Ave,40.730336547,-73.953879952
7393.09,E 97 St & Madison Ave,40.787768483,-73.953240633
8582.09,E Fordham Rd & Webster Ave,40.861740112,-73.891010523
6774.13,30 Ave & 47 St,40.76137495,-73.909611344
6650.07,E 55 St & 2 Ave,40.757966638,-73.96620667
8323.05,Townsend Ave & E 175 St,40.847452044,-73.911417484
6798.01,34 Ave & 21 St,40.7628138,-73.9342862
7657.03,St Ann's Ave & Bruckner Blvd,40.803496718,-73.920147777
6319.07,45 Ave & 21 St,40.74647878333333,-73.9322853
5476.03,E 2 St & Ave C,40.720965981,-73.980865002
6441.01,Broadway & W 36 St,40.75097711,-73.98765428
5501.06,Fresh Pond Rd & Flushing Ave,40.721458435,-73.903000951
6854.05,W 50 St & 9 Ave,40.763604677958625,-73.98917958140373
6958.06,Crescent St & 30 Ave,40.768692,-73.9249574
5500.02,Grand St & Greene St,40.721773505,-74.00246346
3865.05,3 St & Prospect Park West,40.668133497,-73.973681211
7161.08,5 Ave & E 78 St,40.776629448,-73.96424377
7149.05,Amsterdam Ave & W 66 St,40.774628043,-73.984664679
6836.07,34 Ave & 13 St,40.763906837,-73.936617017
6462.05,40 Ave & Crescent St,40.753567696,-73.938208699
6450.05,8 Ave & W 31 St,40.750814199,-73.994661689
6148.02,W 17 St & 8 Ave,40.741873384,-74.001582265
5914.03,W 11 St & 6 Ave,40.735168695,-73.997768521
5235.10,Driggs Ave & S 2 St,40.712512732,-73.960679412
4461.04,DeKalb Ave & Vanderbilt Ave,40.689462423,-73.968857884
5983.04,43 St & 50 Ave,40.737972975,-73.922651887
5721.14,LaGuardia Pl & W 3 St,40.72917025,-73.99810231
5303.06,Clinton St & Grand St,40.715643644,-73.987053752
3263.01,E 18 St & Church Ave,40.64958,-73.96316
6720.07,34 Ave & 31 St,40.759604471387945,-73.92714411020279
6157.04,10 Ave & W 14 St,40.74200213,-74.008238912
6560.14,W 40 St & 7 Ave,40.754737616,-73.988390088
5922.04,Greenwich St & Perry St,40.734545231,-74.006950378
6502.01,55 St & Northern Blvd,40.75326,-73.90585
6860.12,E 65 St & 2 Ave,40.764897585,-73.962503552
8703.05,Grand Concourse & E 199 St,40.871551752,-73.888316631
6092.01,47 Ave & 48 St,40.740886569,-73.916943192
6659.01,E 51 St & Lexington Ave,40.756646395,-73.972401619
8646.02,Botanical Sq & Webster Ave,40.868261814,-73.881514907
7286.05,1 Ave & E 94 St,40.781689405,-73.945940137
8285.11,Featherbed Ln & Jerome Ave,40.845610023,-73.914484978
5470.02,N Moore St & Hudson St,40.71996118117138,-74.00844320654869
6108.03,69 St & 43 Ave,40.74179,-73.89564
3731.11,14 St & 7 Ave,40.663940549,-73.983835816
6659.09,Madison Ave & E 51 St,40.759589434,-73.974951148
6134.13,44 St & Greenpoint Ave,40.740984678,-73.921180367
5532.01,Mercer St & Spring St,40.723757386,-73.999334693
5291.05,Graham Ave & Conselyea St,40.715143,-73.944507
8510.02,Tiebout Ave & E 184 St,40.858532548,-73.896213174
7688.12,Frederick Douglass Blvd & W 117 St,40.805199504,-73.954722524
7716.19,Lexington Ave & E 128 St,40.806458831,-73.936053038
7751.05,Wales Ave & E 147 St,40.811287522,-73.907748103
8084.03,Fulton Ave & E 168 St,40.830471,-73.904556
6711.13,Steinway St & Broadway,40.759382129,-73.918526411
7524.09,West End Ave & W 94 St,40.794274211,-73.973975778
6756.05,W 44 St & 11 Ave,40.762146711,-73.996834397
6361.03,9 St & 44 Rd,40.749771476,-73.952031732
5794.05,India St Pier,40.73173058,-73.960835576
6920.03,W 54 St & 9 Ave,40.76584941,-73.98690506
4010.15,Grand Army Plaza & Plaza St West,40.6729679,-73.97087984
5419.04,N 5 St & Wythe Ave,40.718497515,-73.961297035
5294.04,Henry St & Grand St,40.714211,-73.981095
5422.09,Lafayette St & Grand St,40.72028,-73.99879
6383.06,60 St & 37 Ave,40.749682546,-73.902778864
6206.08,E 30 St & Park Ave S,40.744590044,-73.98311162
8191.01,Broadway & W 165 St,40.838996887,-73.941414118
8012.04,3 Ave & Franklin Ave,40.827024937,-73.907437444
8152.03,Fulton Ave & St Paul's Pl,40.835497856,-73.901562333
6185.07,33 St & Queens Blvd,40.7443653191867,-73.93172398209572
3905.15,3 St & 7 Ave,40.670368314,-73.978256226
5896.01,E 17 St & 2 Ave,40.73431166276575,-73.98372530937195
6762.02,E 58 St & 3 Ave,40.761741996,-73.966496587
6432.10,E 41 St & Madison Ave (SE corner),40.752321243,-73.979457855
5997.10,W 12 St & Hudson St,40.73752993301071,-74.00558933615685
5303.08,Canal St & Rutgers St,40.71427487,-73.98990025
5989.02,W 15 St & 6 Ave,40.738337517,-73.996551037
8682.06,Bainbridge Ave & Bedford Park Blvd,40.87002933,-73.885672212
5359.12,Duane St & Hudson St,40.71703,-74.00925
6608.09,E 54 St & 1 Ave,40.756265,-73.964179
6438.04,11 St & 43 Ave,40.7519071,-73.9479119
6830.02,E 63 St & 3 Ave,40.763954,-73.9646
6929.01,23 St & 31 Ave,40.766506076,-73.928531528
7627.10,Lenox Ave & W 115 St,40.80117929,-73.950161338
5964.01,Bank St & Washington St,40.7532457,-73.99705433333334
6101.11,48 Ave & 41 St,40.739881277,-73.923892736
6143.05,39 St & 47 Ave,40.74215636827728,-73.92662644386292
5581.01,Nassau Ave & Russell St,40.725613236,-73.944254398
8167.04,Charlotte St & Boston Rd,40.835909963,-73.893134236
6289.06,Broadway & W 29 St,40.746377826,-73.988410592
6569.07,W 36 St & 9 Ave,40.75462324029105,-73.99516761302948
5938.01,E 19 St & 3 Ave,40.73624527,-73.98473765
6319.01,45 Rd & 11 St,40.74708586,-73.94977234
5470.10,Greenwich St & Hubert St,40.721319,-74.010065
5847.01,Christopher St & Greenwich St,40.733048201,-74.006792426
5623.03,Nassau Ave & Newell St,40.724800229,-73.947543621
6089.11,E 26 St & 3 Ave,40.740610242,-73.981538415
5515.08,E 4 St & Ave B,40.723346832180155,-73.98265913128853
5971.09,E 22 St & 2 Ave,40.737173438,-73.981360078
5886.13,E 20 St & FDR Dr,40.733208626522426,-73.9756813647
5679.05,Mercer St & Bleecker St,40.727300406,-73.996715784
5484.09,Allen St & Stanton St,40.721844077,-73.989142895
4483.10,Broadway & Madison St,40.68817246,-73.919504285
7696.07,E 128 St & 3 Ave,40.805637479,-73.933971286
5558.04,Wythe Ave & N 13 St,40.722867131,-73.957207441
6225.03,41 Ave & 67 St,40.74446,-73.89764
4507.07,Wilson Ave & Moffat St,40.68906,-73.90506
6422.08,E 43 St & 2 Ave,40.750428796,-73.971105218
6659.03,E 53 St & Madison Ave,40.759801745,-73.974338651
3993.03,Sterling Pl & Bedford Ave,40.672695,-73.954131
8494.07,E 182 St & Grand Concourse,40.855901361,-73.900345564
5797.01,MacDougal St & Washington Sq,40.73226398,-73.99852205
6483.06,W 36 St & 7 Ave,40.751888275,-73.989959836
7409.04,W 84 St & Amsterdam Ave,40.78621,-73.9756
3911.05,Eastern Pkwy & Nostrand Ave,40.669670701,-73.950249314
5093.01,Bedford Ave & S 9 St,40.70853074,-73.96408963
6435.03,50 St & Barnett Ave,40.750107288,-73.913533807
7648.16,2 Ave & E 125 St,40.802554,-73.933509
6943.07,25 Ave & 41 St,40.767760992,-73.911122084
7230.10,W 74 St & Columbus Ave,40.778543115,-73.977640271
6535.04,W 34 St & Hudson Blvd E,40.755349398,-74.000860453
6737.03,36 Ave & 10 St,40.761473417,-73.941051006
6847.05,7 Ave & W 55 St,40.763978124,-73.981422544
6131.12,Madison Ave & E 26 St,40.742398858,-73.986886263
7183.03,Riverside Blvd & W 67 St,40.777507027547976,-73.98888587951659
6996.01,30 Ave & 21 St,40.7703743,-73.9286078
6741.03,91 St & 31 Ave,40.760337472,-73.877699137
7945.03,Walton Ave & E 151 St,40.821031094,-73.927528739
6822.09,1 Ave & E 68 St,40.76476264,-73.958302021
7458.03,W 87 St & Amsterdam Ave,40.788671255,-73.974733949
6013.12,Gramercy Park N & Gramercy Park E,40.73795,-73.98509
7599.09,E 115 St & Lexington Ave,40.797966242,-73.942353845
6197.11,2 Ave & E 31 St,40.74317956,-73.977079749
7062.07,18 St & 27 Ave,40.772549033,-73.927449584
4732.04,Carlton Ave & Park Ave,40.695669889,-73.973500848
7640.04,E 118 St & Madison Ave,40.801557302,-73.944311261
6459.04,10 Ave & W 28 St,40.750599623,-74.001860619
6682.03,E 58 St & 1 Ave (NE Corner),40.75892386377695,-73.96226227283478
7712.06,Lincoln Ave & E 134 St,40.808561802,-73.928738832
4205.06,Kingston Ave & Herkimer St,40.679023147,-73.941428065
6076.02,30 St & 48 Ave,40.741258621,-73.937885404
5329.03,West St & Chambers St,40.71754834,-74.01322069
5805.07,7 Ave S & Bleecker St,40.732099295,-74.003633022
6926.01,W 52 St & 11 Ave,40.767257214,-73.994026542
5348.02,Wythe Ave & Metropolitan Ave,40.716860533,-73.96319294
6887.03,35 St & 30 Ave,40.76547569244953,-73.91811579465866
3180.09,Albemarle Rd & E 21 St,40.647372484,-73.959370732
7327.01,Wards Meadow Comfort Station,40.783005953,-73.930675507
6115.06,Hudson St & W 13 St,40.740265489,-74.005391955
6614.01,28 St & 36 Ave,40.757051229,-73.932857633
6234.04,Woodside Ave & 60 St,40.745284081,-73.904711962
7260.09,Amsterdam Ave & W 73 St,40.77966809007312,-73.98093044757842
5788.15,4 Ave & E 12 St,40.732552528,-73.989910126
8403.02,E Tremont Ave & Jerome Ave,40.851747,-73.908964
6545.07,Broadway & 51 St,40.754213572,-73.908873558
7014.12,Broadway & W 61 St,40.77003010255044,-73.9819684624672
5450.04,N 12 St & Bedford Ave,40.720928907,-73.955012441
6998.08,E 72 St & Park Ave,40.771086574,-73.964214325
6560.01,Broadway & W 41 St,40.755001187,-73.987020254
6955.05,W 54 St & 11 Ave,40.768348098,-73.992609143
7293.10,E 88 St & Park Ave,40.781410700190015,-73.95595908164978
7759.08,Willis Ave & E 141 St,40.810845017,-73.921565175
7840.05,Courtlandt Ave & E 149 St,40.816286683,-73.919354916
4762.05,Flushing Ave & Vanderbilt Ave,40.697955966,-73.970576644
3736.03,Bedford Ave & Montgomery St,40.665918112,-73.95691812
5520.09,N 15 St & Wythe Ave,40.724345207,-73.955815911
6879.04,28 Ave & 44 St,40.764178038,-73.910748959
5181.04,Cherry St,40.712225199,-73.979114652
6104.01,55 Ave & Center Blvd,40.740288,-73.960697
5117.05,Stagg St & Union Ave,40.708745122,-73.951035976
5578.02,Watts St & Greenwich St,40.724253774,-74.009716392
5703.13,Ave A & E 11 St,40.728909612,-73.981751084
7281.09,W 76 St & Columbus Ave,40.780315518,-73.977364779
8734.04,Grand Concourse & E 203 St,40.873769879,-73.886659145
5470.12,North Moore St & Greenwich St,40.72019521437465,-74.0103006362915
5977.01,McGuinness Blvd & Eagle St,40.735556722,-73.952856898
6816.07,8 Ave & W 52 St,40.763772726,-73.98526001
6190.08,9 Ave & W 18 St,40.74317449,-74.00366443
6517.08,W 42 St & 6 Ave,40.75492,-73.98455
6847.02,Broadway & W 56 St,40.765426517,-73.98263061
7123.04,W 64 St & Thelonious Monk Circle,40.774971247,-73.988921642
6064.08,W 18 St & 6 Ave,40.73971301,-73.99456405
7654.04,E 138 St & Willow Ave,40.804303646,-73.911742926
7845.06,Grand Concourse & E 144 St,40.816825867,-73.928348899
5430.08,Franklin St & W Broadway,40.719157338,-74.006695747
6258.02,72 St & Broadway,40.74751,-73.89372
5335.07,Grand St & Samuel Dickstein Plaza,40.715006948,-73.983772635
8514.05,Walton Ave & E 183 St,40.858472,-73.90266
3400.04,Rogers Ave & Lenox Rd,40.653865576,-73.952754855
5542.04,Driggs Ave & N Henry St,40.723166466,-73.943038225
3919.07,Eastern Pkwy & Franklin Ave (NE Corner),40.6707767,-73.9576801
5593.04,E 4 St & 2 Ave,40.726458788,-73.989618063
6137.04,5 St & 51 Ave,40.7423737,-73.9566
6617.09,E 53 St & Lexington Ave,40.75828065,-73.97069431
5709.03,Calyer St & Guernsey St,40.72755807335852,-73.95505852997303
6839.10,Grand Army Plaza & Central Park S,40.7641927,-73.973880768
6700.14,W 51 St & Rockefeller Plaza,40.760004997,-73.978406072
6893.10,31 Ave & Crescent St,40.765875697,-73.92671299
8229.04,Sheridan Ave & E 172 St,40.84040451,-73.911442995
5453.05,Forsyth St & Broome St,40.71893904,-73.99266288
4620.02,Adelphi St & Myrtle Ave,40.69290328,-73.97188592
7967.04,River Ave & E 151 St,40.821996093,-73.929008842
8048.01,E 167 St & Franklin Ave,40.829002857,-73.905274272
7057.07,E 78 St & 2 Ave,40.772823811,-73.95572865
5362.08,Withers St & Kingsland Ave,40.717706561,-73.940563917
6514.08,Vernon Blvd & 41 Rd,40.7552433,-73.9485678
7020.02,E 77 St & 1 Ave,40.77095553869235,-73.95356208096926
5838.09,Washington Pl & 6 Ave,40.732009649,-73.999728441
3286.07,Rogers Ave & Snyder Ave,40.648469329,-73.952256441
6398.08,E 35 St & Madison Ave,40.748577237,-73.982601047
6046.02,E 25 St & 2 Ave,40.738896251,-73.979320645
7175.05,Columbus Ave & W 72 St,40.777234554,-73.978931189
7018.01,31 St & Hoyt Ave N,40.7711528,-73.9170074
4873.08,Evergreen Ave & Noll St,40.70106,-73.93318
6233.05,W 16 St & The High Line,40.74334935,-74.00681753
6560.15,Broadway & W 38 St,40.7529728216068,-73.98734897375107
5553.03,E 3 St & 1 Ave,40.724673152,-73.987901211
6173.08,Broadway & W 25 St,40.742673755,-73.989476442
6247.06,W 27 St & 7 Ave,40.746667385,-73.994722128
6901.01,Broadway & 12 St,40.766830802,-73.934715033
8566.05,E 188 St & Creston Ave,40.861872196,-73.898339033
6520.07,42 Pl & Northern Blvd,40.753068805,-73.920631766
8245.03,Mount Eden Pkwy & Eastburn Ave,40.842675,-73.908544
7154.10,3 Ave & E 81 St,40.77571702,-73.955842137
6572.08,36 Ave & 31 St,40.75651272984955,-73.92957486212252
8103.05,3 Ave & E 169 St,40.832645893,-73.905221701
6561.01,81 St & 34 Ave,40.75374,-73.88604
4954.07,Madison St & Woodward Ave,40.704038501,-73.904108524
7121.13,E 81 St & 1 Ave,40.773386598,-73.952801347
7100.07,5 Ave & E 72 St,40.77282817,-73.96685276
4416.10,Madison St & Malcolm X Blvd,40.687082648,-73.93025589
6809.07,W 56 St & 6 Ave,40.763389826,-73.977541208
7284.01,21 Ave & Crescent St,40.780446529,-73.912169337
5569.06,W Broadway & Spring St,40.725014924999996,-74.001481414
6626.11,W 48 St &  Rockefeller Plaza,40.75776935448309,-73.97929430007935
6417.11,65 St & Broadway,40.74944675,-73.897420049
5105.01,Liberty St & Broadway,40.709072471,-74.010321975
5769.06,Ave C & E 16 St,40.72980094,-73.974583387
5779.10,E 14 St & 1 Ave,40.731371641,-73.982571721
8397.02,E Burnside Ave & Ryer Ave,40.850525737,-73.901363015
5860.02,Green St & McGuinness Blvd,40.734045148,-73.951870918
8041.07,E 161 St & River Ave,40.827915072,-73.927147031
6200.03,53 St & Roosevelt Ave,40.744666696,-73.911512136
6283.05,48 St & Skillman Ave,40.746139646,-73.91623497
7311.02,Amsterdam Ave & W 79 St,40.7829391,-73.9786517
5880.02,W 4 St & 7 Ave S,40.733935595,-74.002968669
6676.02,W 45 St & 8 Ave,40.759470463,-73.989216328
6319.03,44 Dr & 21 St,40.748036,-73.946705
5545.04,E 5 St & Ave C,40.72299208,-73.97995466
5561.06,Lafayette St & Jersey St,40.724628448,-73.995800257
4470.09,Lafayette Ave & Ft Greene Pl,40.686972022,-73.9770087
4446.01,Bergen St & Smith St,40.687031388,-73.99084568
7354.01,Central Park West & W 85 St,40.784992933,-73.969742656
6644.08,9 Ave & W 39 St,40.756403523272496,-73.99410143494606
5545.01,E 7 St & Ave C,40.724258423,-73.979049802
5721.01,Sullivan St & Washington Sq,40.73047747,-73.99906065
6164.09,Lexington Ave & E 29 St,40.743110895,-73.981967688
6151.03,47 Ave & 31 St,40.742949009,-73.935591936
6116.03,61 St & Queens Blvd,40.74091,-73.90273
8392.02,E 180 St & Monterey Ave,40.850248933,-73.892908216
5755.14,University Pl & E 8 St,40.731092095,-73.995120764
3180.02,Beverley Rd & Flatbush Ave,40.64499,-73.95818
5359.13,Church St & Worth St,40.716638803,-74.00628233
6306.01,W 20 St & 10 Ave,40.745705247,-74.0052073
6611.07,Hudson Blvd W & W 36 St,40.75676475086503,-73.99971440439913
6904.06,5 Ave & E 63 St,40.766662359,-73.97157824
3148.09,E 19 St & Beverley Rd,40.64483,-73.9613
4110.10,3 St & Hoyt St,40.67756927,-73.99336791
6303.01,1 Ave & E 39 St,40.74714,-73.97113
6224.05,W 20 St & 8 Ave,40.743622303,-74.000090837
5666.04,Meserole Ave & Manhattan Ave,40.727029324,-73.952990294
7360.10,Amsterdam Ave & W 82 St,40.78524672,-73.97667321
5636.13,E 1 St & Bowery,40.724766612,-73.992124796
6416.06,W 29 St & 9 Ave,40.750056624,-73.998318553
5569.07,W Broadway & Watts St,40.72323,-74.00314
7463.09,E 103 St & Lexington Ave,40.790143251,-73.947431445
6700.01,W 52 St & 5 Ave,40.75992262,-73.97648516
7691.05,Willis Ave & Bruckner Blvd,40.805701,-73.925177
7286.01,E 91 St & 2 Ave,40.781152764279156,-73.94963040947914
4045.01,Clinton St & Centre St,40.674273968,-74.001985192
4821.03,Sands St & Jay St,40.700119,-73.9862
3408.05,Ocean Ave & Crooke Ave,40.65326,-73.96172
6884.03,W 56 St & 8 Ave,40.765959181657976,-73.98313522338867
4895.09,Jay St & York St,40.701214075,-73.986753106
8676.01,Bailey Ave & W 193 St,40.870650887,-73.90684557
8340.01,Grand Concourse & E 176 St,40.84761,-73.90745
6659.10,E 50 St & Park Ave,40.757334,-73.974235
7611.02,E 118 St & 3 Ave,40.799208879,-73.938927174
7909.07,Westchester Ave & Longwood Ave,40.81976223,-73.901032209
7188.10,E 81 St & Park Ave,40.776812911,-73.959371328
7520.07,Columbus Ave & W 95 St,40.7919557,-73.968087
7152.10,24 Ave & 26 St,40.774591,-73.918544
5400.05,Harrison St & Hudson St,40.71870987,-74.0090009
7233.05,Crescent St & Ditmars Blvd,40.778705716,-73.914647698
5279.03,Centre St & Worth St,40.714503765,-74.002539635
6316.05,39 Dr & 52 St,40.747302651,-73.91183424
6158.02,Queens Blvd & 56 St,40.741920948,-73.909026027
7655.22,Lenox Ave & W 117 St,40.802486062,-73.949169874
6251.06,43 Ave & 42 St,40.74534682580983,-73.9219419658184
5137.11,Fulton St & William St,40.709664941,-74.006923318
5414.06,Allen St & Rivington St,40.72019576,-73.98997825
5944.01,Franklin St & Dupont St,40.735646009,-73.958661675
7235.13,E 88 St & 1 Ave,40.778667808,-73.948883414
6782.01,31 Ave & Steinway St,40.7611488,-73.9170071
6464.08,E 45 St & 3 Ave,40.752801299,-73.972685337
8819.05,Naples Terrace & Godwin Terrace,40.880044103,-73.905692697
5561.04,Mott St & Prince St,40.72317958,-73.99480012
4962.02,Whitehall St & Bridge St,40.703661705241345,-74.0131813287735
6004.07,E 25 St & 1 Ave,40.738112688,-73.977337241
8171.06,E 171 St & 3 Ave,40.83714056,-73.902278304
5746.02,E 10 St & 2 Ave,40.72970438,-73.986544013
8319.01,Anthony Ave & E 175 St,40.84634769,-73.903724313
8472.06,Valentine Ave & E 183 St,40.857176781,-73.898188472
3223.07,Ocean Ave & Tennis Ct,40.648590565,-73.960558534
5510.05,57 Rd & 58 St,40.722355366,-73.912437201
4861.05,Henry St & Middagh St,40.71423661666667,-73.9942094
6618.02,100 St & Northern Blvd,40.757599473,-73.868586302
7723.01,St Nicholas Ave & Manhattan Ave,40.809725,-73.953149
7196.04,20 Ave & 38 St,40.777112,-73.902382
3704.04,Flatbush Ave & Ocean Ave,40.663645625,-73.962998033
4707.04,Nostrand Ave & Myrtle Ave,40.69527008,-73.95238108
6465.04,95 St & 35 Ave,40.75301,-73.87266
7767.06,Southern Blvd & Ave St John,40.812769055,-73.901689529
8278.05,Amsterdam Ave & W 175 St,40.844005466,-73.933672905
7210.07,21 St & 23 Ave,40.778557,-73.919046
4386.05,Fulton St & Clermont Ave,40.68415748,-73.96922273
4804.02,Dock 72 Way & Market St,40.699733734,-73.971270442
8100.01,Frederick Douglass Blvd & Harlem River Dr,40.830684423,-73.936522245
7220.01,Steinway St & 19 Ave,40.778089,-73.899558
3356.07,2 Ave & 44 St,40.652292132,-74.013616323
3996.01,7 St & 3 Ave,40.672537923,-73.989697576
4330.09,Hoyt St & Warren St,40.6843549,-73.98901629
7625.18,E 118 St & Park Ave,40.800536394,-73.941957355
7803.02,E 138 St & Park Ave,40.812689066,-73.92934227
4098.06,New York Ave & St Marks Ave,40.67514,-73.94716
4668.08,Johnson St & Gold St,40.69498384,-73.983374596
4637.07,Johnson St & Brooklyn Bridge Blvd,40.695,-73.98917
4605.04,Clinton St & Joralemon St,40.69248426,-73.993071079
5391.06,Lispenard St & Broadway,40.71939226,-74.00247214
4134.06,Berkeley Pl & 6 Ave,40.6765304,-73.97846879
4659.02,Myrtle Ave & St Edwards St,40.693135619,-73.977033257
7432.09,W 89 St & Columbus Ave,40.788207054,-73.97045958
7344.05,E 91 St & Park Ave,40.7835016,-73.955327
3707.01,23 St & 3 Ave,40.662611,-73.998623
8052.01,Webster Ave & E 166 St,40.828971386,-73.911287308
4721.01,Cedar St & Evergreen Ave,40.696757674,-73.927962542
4413.08,Warren St & Court St,40.686358929,-73.993762612
6332.06,74 St & 37 Ave,40.749120235,-73.891781569
5575.13,Ave D & E 10 St,40.72506551015475,-73.97515833377838
6442.08,81 St & 35 Ave,40.751773834,-73.885573745
4953.04,South St & Gouverneur Ln,40.70355377,-74.00670227
4713.01,Central Ave & Himrod St,40.696763515,-73.922937632
5270.07,Forsyth St & Canal St,40.715882778,-73.994211793
6323.04,84 St & Roosevelt Ave,40.74797,-73.88204
8579.09,10 Ave & W 204 St,40.862677813,-73.920058727
8049.05,Edgecombe Ave & W 150 St,40.826881,-73.941427
4821.10,Adams St & Prospect St,40.700763083261506,-73.98869812488556
2951.05,55 St & 7 Ave,40.639673,-74.008957
3335.09,Caton Ave & St. Pauls Pl,40.651501536,-73.962744832
6718.02,77 St & 31 Ave,40.75886,-73.89081
7567.06,Lexington Ave & E 111 St,40.795243263,-73.944139242
8088.01,E 167 St & Clay Ave,40.83088851,-73.911010504
8018.09,W 146 St & Broadway,40.827090263,-73.949500799
8104.10,Amsterdam Ave & W 156 St,40.832030535,-73.942695618
4217.02,Douglass St & 3 Ave,40.6802133,-73.98432695
7952.02,Cauldwell Ave & E 161 St,40.821830153,-73.907526135
7891.06,Westchester Ave & E 156 St,40.817724228,-73.905351639
5230.02,Rutgers St & Henry St,40.71332151208186,-73.99009689688683
8085.13,Harlem River Dr & W 155 St,40.830476,-73.939929
3460.06,2 Ave & 37 St,40.65624,-74.00933
7634.01,W 106 St & Amsterdam Ave,40.800611496,-73.966261029
8336.02,Wadsworth Ave & W 179 St,40.848488927,-73.936246753
4255.05,Hancock St & Bedford Ave,40.682172894,-73.95388186
3420.01,36 St & 4 Ave,40.654144,-74.00422
8579.03,W 204 St & Nagle Ave,40.86344552,-73.920654535
6645.06,32 Ave & 75 St,40.75704,-73.8924
4543.07,Lewis Ave & Greene Ave,40.689752579,-73.936475515
4151.01,Smith St & 3 St,40.6787242,-73.99599099
8119.05,W 159 St & Edgecombe Ave,40.833303,-73.939326
7704.04,Adam Clayton Powell Blvd & W 123 St,40.8079108,-73.949220657
6603.06,32 Ave & 77 St,40.75727,-73.89024
3579.04,Windsor Pl & Howard Pl,40.659578919,-73.980340838
8009.05,Adam Clayton Powell Blvd & W 151 St,40.825289,-73.936232
3768.02,Crown St & Rogers Ave,40.666480064,-73.953387618
8004.03,Westchester Ave & Southern Blvd,40.824977398,-73.891562343
8096.02,Jerome Ave & E 164 St,40.831541657,-73.926141143
8494.06,Ryer Ave & E 182 St,40.855844021,-73.899604201
6654.05,31 Ave & 61 St,40.757525,-73.901614
5190.09,Clinton St & Cherry St,40.711229444,-73.986687541
5096.12,Peck Slip & South St,40.707852125,-74.001312852
4010.13,Plaza St West & Flatbush Ave,40.674946189,-73.971237779
6037.02,53 Ave & 94 St,40.73922956,-73.86886549
4184.07,Carroll St & Bond St,40.678718925,-73.990177155
7741.04,Morningside Dr & Amsterdam Ave,40.810242295,-73.957211137
4707.03,Myrtle Ave & Marcy Ave,40.69539817,-73.94954908
4137.10,Coffey St & Conover St,40.677401781,-74.015725255
5207.01,Centre St & Chambers St,40.712698936,-74.004680753
4157.15,Prospect Pl & Vanderbilt Ave,40.67782402,-73.969238639
2912.08,6 Ave & 60 St,40.638304949,-74.01364696
7872.03,Lenox Ave & W 140 St,40.817096949,-73.938912034
2861.02,57 St & 7 Ave,40.638664842,-74.010168433
5406.04,Pitt St & Stanton St,40.71926081,-73.98178024
2883.03,3 Ave & Wakeman Pl,40.638246,-74.024714
6793.01,Ditmars Blvd & 31 Dr,40.76138,-73.86035
3914.02,7 St & 5 Ave,40.6704922,-73.98541675
7876.07,Frederick Douglass Blvd & W 139 St,40.818929076,-73.944921017
6991.12,E 75 St & 3 Ave,40.771175504,-73.957647324
4060.09,Carroll St & 5 Ave,40.6751622,-73.9814832
7727.08,Amsterdam Ave & W 119 St,40.808502555,-73.959742785
3882.05,10 St & 4 Ave,40.66967356370341,-73.98898908183764
6273.03,Case St & 94 St,40.74619,-73.87193
8811.01,Paul Ave & Mosholu Pkwy,40.880271316,-73.886188269
3922.02,10 St & 2 Ave,40.671790481,-73.99370122
3842.08,10 St & 5 Ave,40.668786764000004,-73.987230062
4404.10,Bond St & Bergen St,40.6849668,-73.98620772
3515.01,7 Ave & 22 St,40.657940984,-73.989769578
4019.06,Carroll St & 6 Ave,40.674072146,-73.978573203
5065.04,John St & William St,40.70862144,-74.00722156
7753.13,Lenox Ave & W 130 St,40.810720801,-73.943157911
6766.03,Bulova Ave & Brooklyn Queens Expressway W,40.762507,-73.902534
6660.05,99 St & 32 Ave,40.758940458,-73.869794011
6629.06,48 St & Broadway,40.755763,-73.912715
3874.01,5 St & 6 Ave,40.67049253,-73.982250214
4614.04,Atlantic Ave & Furman St,40.691702127,-74.000103951
8299.03,Wadsworth Ave & W 175 St,40.846052527,-73.937674761
8049.10,Convent Ave & W 151 St,40.828386784,-73.942878723
7314.03,21 St & 21 Ave,40.782465,-73.914527
4680.05,Bushwick Ave & Dekalb Ave,40.6949507,-73.928083062
7610.13,W 104 St & Amsterdam Ave,40.799108028,-73.966377735
4095.03,Van Brunt St & Wolcott St,40.6773429,-74.01275056
5257.01,53 St & Flushing Ave,40.71435,-73.91405
4327.09,Putnam Ave & Nostrand Ave,40.684006453,-73.949874282
8315.03,3 Ave & E Tremont Ave,40.846278787,-73.896236777
5195.06,S 4 St & Roebling St,40.710709,-73.959724
8335.02,Park Ave & E Tremont Ave,40.84716475,-73.8998878
7636.05,E 123 St & Lexington Ave,40.8029263,-73.9379
4565.07,Schermerhorn St & Court St,40.691168666,-73.992026925
7388.10,Riverside Dr & W 82 St,40.78704834,-73.981429696
4175.15,Union St & 4 Ave,40.677153111,-73.982446432
8060.01,Freeman St & Southern Blvd,40.830016971,-73.892259479
4446.05,Dean St & Hoyt St,40.686392307,-73.98737967
7453.01,Central Park W & W 91 St,40.788728833,-73.966525793
7502.01,W 92 St & Broadway,40.792164445,-73.974009752
8172.07,Amsterdam Ave & W 162 St,40.83618,-73.939789
5987.03,99 St & 58 Ave,40.737493277,-73.859544992
4336.01,Monroe St & Classon Ave,40.684527755,-73.95868814
8138.07,W 160 St & St Nicholas Ave,40.83442235,-73.939936638
7849.10,Longwood Ave & Southern Blvd,40.816384673,-73.896457911
6405.03,43 Ave & 111 St,40.749576926,-73.85457921
6171.02,111 St & 53 Ave,40.74336,-73.85129
5548.01,58 St & 56 Dr,40.72419,-73.91244
8126.07,Grand Concourse & E 167 St,40.834166646,-73.917654991
4263.12,Fulton St & Irving Pl,40.681842566,-73.959185243
8269.01,Goble Pl & Macombs Rd,40.844067812,-73.917207479
3192.05,7 Ave & 41 St,40.64716053,-74.001026034
7682.01,Park Ave & E 124 St,40.804701805,-73.939639926
8123.06,Broadway & W 157 St,40.834007382,-73.945210576
7365.08,E 97 St & 3 Ave,40.785684943,-73.948571682
5611.05,63 St & Borden Ave,40.726636052,-73.903167725
8069.01,Amsterdam Ave & W 152 St,40.829526901,-73.944283128
4724.03,Washington Ave & Park Ave,40.696163535,-73.967474103
8841.03,W Mosholu Pkwy S & Sedgwick Ave,40.88229084,-73.887035489
6743.06,Newton Rd & 44 St,40.759695053,-73.914409161
7790.04,Lenox Ave & W 133 St,40.81300807,-73.941914797
4871.02,71 Ave & Myrtle Ave,40.700733542,-73.89884007
4258.07,Degraw St & Hoyt St,40.681936383,-73.990815043
6877.05,Jackson Mill Rd & 24 Ave,40.766322255,-73.87564671
4131.03,Brooklyn Ave & Dean St,40.67669,-73.94437
8085.05,St Nicholas Ave & W 155 St,40.830565929,-73.941432595
8210.01,W 163 St & Riverside Dr,40.83924365,-73.945327878
7905.05,Garrison Ave & Manida St,40.819022417,-73.890322685
7740.08,Brook Ave & E 141 St,40.809298158,-73.918060184
5644.05,W Broadway & W Houston St,40.725943327,-74.000484586
3233.06,44 St & 6 Ave,40.647105,-74.004483
4634.02,Willoughby Ave & Walworth St,40.693282247,-73.953772068
4513.06,DeKalb Ave & Hudson Ave,40.690035701,-73.981080055
7735.23,E 128 St & Madison Ave,40.80752933,-73.938969374
8206.17,Amsterdam Ave & W 167 St,40.839582562,-73.936939478
4718.08,Pierrepont St & Monroe Pl,40.69535693320225,-73.99344027042389
7863.03,E 149 St & Morris Ave,40.817337513,-73.922932982
7966.02,E 165 St & Fox St,40.824110866,-73.894174576
5057.07,67 Ave & Fresh Pond Rd,40.705720901,-73.896812201
7082.08,23 Ave & 31 St,40.77423301703027,-73.91274864321404
5065.12,William St & Pine St,40.707376599,-74.00890553
7587.16,W 111 St & 5 Ave,40.797520781247556,-73.9489397406578
6932.15,E 68 St & Madison Ave,40.769081473,-73.967164755
7832.04,W 135 St & Lenox Terrace Pl,40.813629031,-73.939208031
8016.07,Park Ave & E 162 St,40.825716,-73.915585
6264.06,National St & 45 Ave,40.74582,-73.86433
3428.04,2 Ave & 43 St,40.652853489,-74.012854934
4792.03,Central Ave & Starr St,40.70010376,-73.928576469
6113.07,51 Ave & Junction Blvd,40.74087,-73.86772
4137.14,Coffey St & Ferris St,40.678208232,-74.017188907
8198.05,Shakespeare Ave & W 169 St,40.839483142,-73.922455549
5137.10,Spruce St & Nassau St,40.71146364,-74.00552427
7745.07,W 120 St & Claremont Ave,40.811110616,-73.963731885
3492.04,34 St & 4 Ave,40.655263782,-74.003142118
5001.08,Little West St & 1 Pl,40.705661774,-74.016844034
8366.06,W 176 St & Montgomery Ave,40.849586606,-73.919237971
8786.01,Giles Pl & Fort Independence St,40.878739357,-73.898652077
6757.03,73 St & 25 Ave,40.76205,-73.895
5065.10,Maiden Ln & Pearl St,40.70706456,-74.00731853
6552.07,34 Ave & 89 St,40.754407287,-73.878131151
7830.03,Prospect Ave & E 151 St,40.814436793,-73.903906822
8226.05,W 165 St & Fort Washington Ave,40.84004,-73.942939
3850.03,3 Ave & 14 St,40.6685455,-73.99333264
4546.06,DeKalb Ave & S Portland Ave,40.68967018552252,-73.97527355121376
7893.05,Adam Clayton Powell Blvd & W 141 St,40.819206953,-73.940463185
6365.10,79 St & 37 Ave,40.749233961,-73.887171745
8133.08,Boston Rd & Prospect Ave,40.833234668,-73.896686196
4450.06,Putnam Ave & Ralph Ave,40.687243342,-73.923141956
7538.14,W 100 St & Manhattan Ave,40.795,-73.9645
7970.05,E 163 St & Union Ave,40.822538614,-73.901733637
4689.08,Stuyvesant Ave & Hart St,40.694627047,-73.934278488
7363.04,20 Ave & 21 St,40.783903599,-73.912197113
8129.02,Southern Blvd & E 172 St,40.834253311,-73.889512897
4645.04,Henry St & Remsen St,40.693802834,-73.994836807
6433.01,92 St & 37 Ave,40.750971913,-73.875110388
5262.09,Madison St & Montgomery St,40.713183403,-73.984741807
7755.03,St Ann's Ave & E 144 St,40.811220407,-73.914912224
4166.08,Prospect Pl & 6 Ave,40.679280639,-73.975082994
6817.15,25 Ave & 85 St,40.76328,-73.88404
4175.14,Douglass St & 4 Ave,40.6792788,-73.98154004
8505.08,E 189 St & Bathgate Ave,40.85860014,-73.888199568
4895.15,Pearl St & York St,40.701458097,-73.987457395
7979.17,E 161 St & Park Ave,40.82484436,-73.916467547
4781.03,Concord St & Bridge St,40.69766564,-73.98476437
3665.06,Sterling St & Bedford Ave,40.6627059,-73.9569115
4756.04,Brooklyn Bridge Park - Pier 2,40.698458,-73.997178
7599.02,E 115 St & Madison Ave,40.798858166,-73.944689751
4645.09,Hicks St & Montague St,40.695049763,-73.996015787
7701.21,5 Ave & W 126 St,40.807270765,-73.941753387
6016.06,48 St & 50 Ave,40.73737,-73.91803
4455.11,Kane St & Clinton St,40.6861758,-73.99645295
7884.04,E 149 St & Park Ave,40.818194151,-73.925300598
4042.08,Underhill Ave & Lincoln Pl,40.673999071,-73.967345715
4193.14,1 Pl & Clinton St,40.6809591,-73.99905709
8254.01,W 170 St & University Ave,40.841971278,-73.926166892
7903.02,Broadway & W 133 St,40.819145441,-73.956036568
6533.02,37 Ave & 106 St,40.75397,-73.862
7959.18,Hamilton Pl & W 140 St,40.822775602,-73.951288581
7180.02,E 84 St & 1 Ave,40.77565541,-73.95068615
7202.07,31 St & 21 Ave,40.778125405,-73.90834856
4225.14,Carroll St & Smith St,40.680611,-73.99475825
8110.04,Boone Ave & E 172 St,40.832615256,-73.885312557
4010.01,Plaza St East & Flatbush Ave,40.673220158,-73.969281077
8000.02,Concourse Village East & E 158 St,40.823960304,-73.919498563
8048.04,Boston Rd & E 167 St,40.828251243,-73.903636217
7154.07,E 81 St & 3 Ave,40.775834441,-73.956537485
4119.04,Clinton St & 4 Place,40.6783563,-74.00014502
7886.02,12 Ave & W 125 St,40.818380237,-73.960352659
5156.05,S 4 St & Rodney St,40.709372401,-73.956143737
2932.03,Wakeman Pl & Ridge Blvd,40.639405489,-74.026795864
2832.03,4 Ave & Shore Road Dr,40.636949182,-74.022151232
4628.07,Myrtle Ave & Fleet Pl,40.693647265,-73.982190609
7726.02,Willis Ave & E 137 St,40.808410645,-73.923668385
8284.01,Bronx Park S & Bryant Ave,40.84438467,-73.877946138
7995.04,Washington Ave & E 163 St,40.824,-73.91089
7748.02,E 132 St & Madison Ave,40.810067892,-73.937184215
6627.12,93 St & Northern Blvd,40.756365895,-73.875125527
8415.01,E 181 St & Bathgate Ave,40.852083564,-73.894542933
8717.07,E 201 St & Briggs Ave,40.871972084,-73.884604931
7738.04,Adam Clayton Powell Blvd & W 126 St,40.809495347779475,-73.94776493310928
8209.01,Morris Ave & E 171 St,40.839115858,-73.910738587
6198.03,Forley St & Lamont Ave,40.744530201,-73.874046803
7450.05,Pleasant Ave & E 116 St,40.7949879,-73.9333349
8563.06,Nagle Ave & Thayer St,40.861382,-73.925591
8233.01,Inwood Ave & W 170 St,40.840481997,-73.919120312
7595.17,Columbus Ave & W 103 St,40.7969347,-73.9643412291
7735.05,5 Ave & W 131 St,40.81017077,-73.939782858
4962.08,Broad St & Bridge St,40.70365182,-74.01167797
3696.05,Rogers Ave & Sterling St,40.66300869,-73.953667164
6290.13,79 St & Roosevelt Ave,40.747146487,-73.886673212
7940.04,E 156 St & Courtlandt Ave,40.82123860172,-73.9173299074173
3803.09,6 Ave & 9 St,40.668274522,-73.983685613
8115.01,Ogden Ave & W 164 St,40.832719207,-73.929466248
4993.02,Pearl St & Hanover Square,40.7047177,-74.00926027
6683.01,112 St & Northern Blvd,40.75788,-73.85763
7803.08,E 138 St & Grand Concourse,40.813263059,-73.930608988
3633.08,Lincoln Rd & Ocean Ave,40.6605,-73.9626
4455.10,Congress St & Clinton St,40.688229561,-73.995504856
4371.01,Warren St & Smith St,40.685424009970184,-73.99127773940563
4143.04,3 Ave & Carroll St,40.676996946,-73.986494541
8502.04,Crotona Ave & E Fordham Rd,40.857985497,-73.881440163
6399.06,86 St & 37 Ave,40.749901414,-73.880610824
5359.10,Hudson St & Reade St,40.716281176,-74.00932014
3169.07,53 St & 4 Ave,40.644948483,-74.014532685
4491.09,Monroe St & Patchen Ave,40.688220382,-73.926965237
3388.02,41 St & 3 Ave,40.652512,-74.008906
6812.06,30 Ave & 41 St,40.763441801,-73.914113283
8061.01,Jerome Ave & Anderson Ave,40.830206871,-73.928875327
6240.05,Elmhurst Ave & Forley St,40.745990872,-73.877539992
7910.01,Lenox Ave & W 144 St,40.819933414,-73.936426163
4028.03,3 St & 3 Ave,40.6750705,-73.98775226
7932.10,W 144 St & Adam Clayton Powell Blvd,40.820877,-73.939249
3814.01,Buffalo Ave & E New York Ave,40.666058302,-73.926012516
6020.02,Waldron St & 108 St,40.739199877,-73.852583408
7937.15,St Nicholas Terrace & Convent Ave,40.821037412,-73.947736144
5442.05,Bayard St & Leonard St,40.71917057,-73.949099302
7800.03,Amsterdam Ave & W 125 St,40.813156128,-73.956636071
3084.05,52 St & 6 Ave,40.642745018,-74.009552479
6609.03,34 Ave & 108 St,40.75626874,-73.86096704
4829.01,Columbia Heights & Cranberry St,40.70037867,-73.99548059
6314.09,Benham St & Roosevelt Ave,40.74841,-73.8751
3919.12,Eastern Pkwy & Franklin Ave (SW Corner),40.670529,-73.958222
3946.07,1 St & 6 Ave,40.672742248,-73.979713678
3050.03,55 St & 5 Ave,40.642510533,-74.013361812
4843.01,5 St & Market St,40.699718237,-73.974557042
8699.01,Marion Ave & Mosholu Pkwy,40.870540261,-73.881922841
3188.04,Rugby Rd & Albemarle Rd,40.64672,-73.96637
8707.01,Goulden Ave & W 197 St,40.871552587,-73.897157311
6989.07,31 St & Astoria Blvd,40.769874454,-73.918485761
3229.07,E 48 St & Tilden Ave,40.64795,-73.93182
6567.03,111 St & 37 Ave,40.753953099,-73.857424855
8453.14,W 190 St & St Nicholas Ave,40.854822278,-73.929478884
4138.04,Thomas S. Boyland St & Fulton St,40.67854,-73.91367
3934.07,Troy Ave & Park Pl,40.672378898,-73.936496139
8772.06,Kingsbridge Terrace & W 230 St,40.875518322,-73.90210259
3426.02,Prospect Ave & Vanderbilt St,40.653194904,-73.976188302
6949.03,91 St & 23 Ave,40.767585039,-73.879010439
8738.01,Goulden Ave & Bedford Park Blvd,40.874063492,-73.895244598
3359.01,Church Ave & Nostrand Ave,40.650892258,-73.949869156
4228.02,Fulton St & Utica Ave,40.679460645,-73.930109143
5371.07,Frost St & Meeker Ave,40.71766197083994,-73.94880026578903
6105.02,100 St & Lewis Ave,40.73988,-73.86012
5945.01,60 Ave & Otis Ave,40.73715,-73.85614
4689.03,Suydam St & Broadway,40.695531964,-73.932159066
3879.04,Union St & Bedford Ave,40.669283986,-73.955298662
3882.01,12 St & 4 Ave,40.668603,-73.9904394
4161.01,Van Sinderen Ave & Truxton St,40.678555965,-73.903700233
6907.03,46 St & 25 Ave,40.765753,-73.90676
7291.06,Ditmars Blvd & 19 St,40.781429052,-73.918124914
6001.01,Borden Ave & Review Ave,40.738626719,-73.941170335
4864.09,Wilson Ave & Troutman St,40.701714516,-73.92747736
5084.03,Division Ave & Marcy Ave,40.707130909,-73.957980752
6511.03,50 St & Northern Blvd,40.753441,-73.912402
4357.01,Moffat St & Bushwick,40.684597731,-73.909270287
4392.04,Putnam Ave & Throop Ave,40.685265899,-73.941116333
3567.05,Rutland Rd & E 45 St,40.66035223,-73.936249256
6417.04,65 St & 35 Ave,40.750540257,-73.897824645
3742.11,Carroll St & Rochester Ave,40.666002631,-73.928513169
6298.04,69 St & 38 Ave,40.746726871,-73.896566749
5881.01,Tyler Ave & Maurice Ave,40.733989596,-73.901354313
4170.08,Somers St & Rockaway Ave,40.678783059,-73.911088109
5010.02,Willoughby Ave & Wyckoff Ave,40.705614,-73.92153
3831.03,Kingston Ave & Carroll St,40.666963339,-73.942414165
4122.03,Pacific St & Troy Ave,40.677027822,-73.93619132
8387.03,Crotona Ave & E 183 St,40.851427555,-73.884792805
8650.11,Seaman Ave & Beak St,40.867505,-73.926363
6520.06,43 St & 35 Ave,40.754135966,-73.919557691
8320.01,Fort Washington Ave & W 173 St,40.845076442,-73.940812588
4023.05,Pacific St & Thomas S. Boyland St,40.675672174,-73.913985252
6234.01,57 St & Woodside Ave,40.745689034,-73.907442689
3952.07,Lincoln Pl & Nostrand Ave,40.67077,-73.9507
5114.08,South End Ave & Albany St,40.709527135,-74.015997052
6062.03,103 St & Martense Ave,40.740514278,-73.856724381
5187.03,Hope St & Union Ave,40.71167351,-73.95141312
3811.05,16 St & 4 Ave,40.666197,-73.992466
4317.05,Bushwick Ave & Furman Ave,40.67713211666667,-73.90827465
6005.04,55 Ave & 90 St,40.736772895,-73.873290658
5051.02,Irving Ave & Jefferson St,40.705242634,-73.925468445
5002.09,Harman St & Seneca Ave,40.705661297,-73.913049579
4016.03,Kingston Ave & Park Pl,40.67308,-73.94191
4648.03,Malcolm X Blvd & DeKalb Ave,40.693836093,-73.931288838
7032.02,76 St & 21 Ave,40.770216584,-73.893632531
4212.01,MacDougal St & Rockaway Ave,40.68024838,-73.911504745
6855.02,81 St & 24 Ave,40.76465416,-73.888027549
4113.01,Pacific St & Rochester Ave,40.676359057,-73.927326441
4832.07,Central Ave & Melrose St,40.701154232,-73.930372357
8756.07,Sedgwick Ave & W 231 St,40.875188589,-73.901198745
4120.02,Fulton St & Williams Ave,40.677186012,-73.901006222
3038.08,50 St & 7 Ave,40.642519474,-74.006199121
